[
    {
        "placeId": "4DNdMUlK843I-PiVgKx_mvk8jkKLr2jWyY5N35TKRnv_9DPSla42YOP5PJa7yVFZyNdEzpW_RUrP-yfvjJVNTvrkHpa-l011-_ojUbjLyFbP-C_gjb5VTkHXL_iUlVVw_tcBz5e9QUj76ifkjZVdSfnWL_K7y1WI-Nc2v1E2UQZTM-UDLu4NRdvuOAfSMkkV24-o3_4y_I1D71y_GuZVRdc5UO_SIrWv0-1cn7I6vXa_P-DvyjEdFyvf5IN8",
        "formattedAddress": "Huyện Tủa Chùa, Điện Biên",
        "name": "Huyện Tủa Chùa",
        "coordinate": {
            "latitude": 21.856652564000058,
            "longitude": 103.34228308400009
        },
        "compound": {
            "district": "Tủa Chùa",
            "commune": "Tủa Chùa",
            "province": "Điện Biên"
        }
    },
    {
        "placeId": "ySnP6eXq57_QlgjB9rNIZv5bpuCTsX0q4v4h0ZVKerBS0Obyiy1bUOAPzOGX1UsthJED56ehUyz09DH3lrIsav6TG8qWoHYr5eQ91qbVX0jR5jHtk6BLUObJMf6Ki0tu4Mkf0YmjX1ZP9Dn6k4vSlV0PIMeyl1UtT5skxyoqKX1fS517VpZ1PaOWQH-qSjClo_fQ94ZKhQ07lyTGxp9hPa9DqJYuWs3VJ5ZM58pCxQ1nR5iXsktRbVOnnPsE",
        "formattedAddress": "Chùa Tó, Uy Nỗ, Đông Anh, Hà Nội",
        "name": "Chùa Tó",
        "coordinate": {
            "latitude": 21.138231457000074,
            "longitude": 105.85708089000008
        },
        "compound": {
            "district": "Đông Anh",
            "commune": "Uy Nỗ",
            "province": "Hà Nội"
        }
    },
    {
        "placeId": "Sl7kLuCRLIXQ907mi4wC1OSQVYyn1EpTl_sajeWMTlyk2SDZkLJCaeSRPOik11J24Osg86ajTnfokyD2p6BaSeXnL4unjSFR5OU816fU_0le5zDskqHQUefIMP-LikpvWsjh0IiiXlce9Tj7kopCVubJMO2k1OdS50owy4uLyFbTsF_UpOZOaeScHuuTjShp_PU84JOgQk_kyDDZpopOatHrJOuXsnRI5JI485GwQljQSyTtk9Va5T-hVP8A",
        "formattedAddress": "Chùa Ân, Nghi Đức, Vinh, Nghệ An",
        "name": "Chùa Ân",
        "coordinate": {
            "latitude": 18.720682108000062,
            "longitude": 105.69870910400005
        },
        "compound": {
            "district": "Vinh",
            "commune": "Nghi Đức",
            "province": "Nghệ An"
        }
    },
    {
        "placeId": "-5bLi_cg94_L0zzRi8lgT8z7P5aPlmhu_-gw64qXVlpS5zzqikb8enTny5e4Gmsy4_k0572QQjf6xTuXjr1Oevz3rJC4NFE2-P1mQy7vIQlXM-yzwjr1WTfvULOOXllZz_dQCzJTjQku-6STnjvheSvrVLPG4yFZO-9Qs15eXQkrP-kPIuIBSdfiNAvdXkTSP4Okg_HW8XlP43CzF1JZSds26OPeLrmhU-I4k742sXkTM-zjxmclGSfT6I48",
        "formattedAddress": "Chùa Cả, Đức Lý, Lý Nhân, Hà Nam",
        "name": "Chùa Cả",
        "coordinate": {
            "latitude": 20.57430487000005,
            "longitude": 106.06057824900006
        },
        "compound": {
            "district": "Lý Nhân",
            "commune": "Đức Lý",
            "province": "Hà Nam"
        }
    },
    {
        "placeId": "6K2y6oHhCobfwQLMhKJ4a-rrQoCTsigg5J5NgoSGc2rcn1_lhr1kRd3EUoaGVlJn8Ou_8YcOVnrz-hbVq5tFIeqdLOetn3Bd6Okw26vrUkXc2DzgnkdG6-vEPPOHXUZj7cQS3ISuUlvo-TT3noZOWurFPOGo2EZe64k8xIeHUlrfx1PYqJBCZeidEueHfgSRl8Pkw7J-sTkPoxDzVqoZCZt3nKOebvnhE6J40vJ3_TlTc6yi8n9lWWeTqM8w",
        "formattedAddress": "Chùa Tố, An Hiệp, Tuy An, Phú Yên",
        "name": "Chùa Tố",
        "coordinate": {
            "latitude": 13.261828752000042,
            "longitude": 109.23499614600007
        },
        "compound": {
            "district": "Tuy An",
            "commune": "An Hiệp",
            "province": "Phú Yên"
        }
    },
    {
        "placeId": "Hfrgr0HI_05M6M_LlJNKRfj7MZO4y1UzUeQFkruTj0Ovxj_Gj5pdYK3rBVGP901p__Q_7Lm8UWj3jD_puL9FVPr4MJS4kohW-_ojyD7LuFbP-C_zjb5VTvjXL-CUlVVw_tcBz5e9QUj76ifkjZVdSfnWL_K7y1VN-Ncv1JSUQUnM2-UDLu4NRdvuOAfSMkjd24-oj_4y_XVD71y_GuZVRdc70O_SIrWtX-40n7I6vXUfP-DvyjMpFSvf5IN8",
        "formattedAddress": "Sảnh đón khách đến, Tầng trệt, Sân bay Quốc tế Tân Sơn Nhất - Ga Quốc Nội, Phường 2, Tân Bình, Hồ Chí Minh",
        "name": "Arrival Hall",
        "coordinate": {
            "latitude": 10.813950821000049,
            "longitude": 106.66233978100007
        },
        "compound": {
            "district": "Tân Bình",
            "commune": "Phường 2",
            "province": "Hồ Chí Minh"
        }
    },
    {
        "placeId": "XoPvoKLA9UvGgzzggcR4dpX3W_C3hzke7_VgwbGCQnfu2Sj7mqJGb0rY9ZmAo3A4L-Q_mY-jPVf4-x3Sm5hke_PZEt-GnGxZ9PUsx7fETlnA9yD8grFaQffYIO-bmlp_8dgOwJiDyTkf05SjrgppSRvbZIP20xFpC99gg25ubTkbD9k_EtIxeefSBDvuDnTh57OUs8IOwUl_02CDJtppeesH7NPuHomRY9IIo44GgUkjA9zT9g8VKRfj2L9A",
        "formattedAddress": "Denli, 69 Nam Ngư, Cửa Nam, Hoàn Kiếm, Hà Nội",
        "name": "Denli",
        "coordinate": {
            "latitude": 21.026467387000025,
            "longitude": 105.84187209900006
        },
        "compound": {
            "district": "Hoàn Kiếm",
            "commune": "Cửa Nam",
            "province": "Hà Nội"
        }
    },
    {
        "placeId": "-T3ukM1XOeLM1SHNlax9VPjVE5GPvnVv4dT6k4yQfVLNNdTRl65qefvoNtK5mK1N_uo5gYlTzFvhjCWWuslqN-LmLpW7s2lQzPghyrrJQ1TN-i1Wj7xX8frVLYpMl1dy_NUDlpW_Q0r56CXmj5dfS_vULfC5y0VdP-tUt1paWQ0vO-0LJuYFTdPmMA_aOkDV04egh_Y69X1L51VPEu5ctd8z2U0eKr2lV-Y_2JYytX0XN-jnwjshHSPX7It0",
        "formattedAddress": "Đenta, 23 Xuân Thủy, Dịch Vọng Hậu, Cầu Giấy, Hà Nội",
        "name": "Đenta",
        "coordinate": {
            "latitude": 21.036272335000035,
            "longitude": 105.78890275600008
        },
        "compound": {
            "district": "Cầu Giấy",
            "commune": "Dịch Vọng Hậu",
            "province": "Hà Nội"
        }
    },
    {
        "placeId": "3puVwOnklTX2mlqElbgpJur8D-hHt5hi2e4LxnWDW3bowDH-mVN9ZO_vucefE0t53sdTgprfRG727yn8moJDZvbuQvmogVsl7exv3q7dV0DZ7jnlm6hDWO7BOfaCg0Nm6MEX2YGrV17tjDG5m_xLX-_yOYOt3UNb7sE5woKCV1_a71bdrZVHYO2YF57iKhCFg9fw1mpqpS0btwTnQr4NHY9juLeKeu31B7eIx-pi5S1HZ7i3kmtxTXOHvNsk",
        "formattedAddress": "Gò Đền, Tề Lễ, Tam Nông, Phú Thọ",
        "name": "Gò Đền",
        "coordinate": {
            "latitude": 21.274590490000037,
            "longitude": 105.18419715800007
        },
        "compound": {
            "district": "Tam Nông",
            "commune": "Tề Lễ",
            "province": "Phú Thọ"
        }
    },
    {
        "placeId": "T8Vbn_YybVPc6iKFiIZDZdzEJZyHgEYs6sMIhKzYRErm-Vbwqdssa-j7H4OdvF8l2vouz62uQ1Hw6j2awNkkVfGcNZqbhnFL6egx2qrZU0Td6j3hn6xHXOrFPfKGh0di7MUT3YWvU1rp-DX2n4dPW-vqPeCp2UdX6sRfxoaGUz3e61LZGqZFDZOmcE-aegPJkJfgx7Z6t8ULpxT3Uq4dDZ9zmKeaav3lF6Z81_py9T1Xd6r3gnilXWOXr2M0",
        "formattedAddress": "Đá Đen, Mỏ Vàng, Văn Yên, Yên Bái",
        "name": "Đá Đen",
        "coordinate": {
            "latitude": 21.69586341300004,
            "longitude": 104.63703461000006
        },
        "compound": {
            "district": "Văn Yên",
            "commune": "Mỏ Vàng",
            "province": "Yên Bái"
        }
    },
    {
        "placeId": "Rv0g77lKUlnjxmGAnoUVJOjRLNyAuyVg2cEgx5neQ1bt7jOBmLhnJ_fAGvyp33xV9JgK3pS5QlvsmA7RmJ9_IuzFO8mAriVi7O0036_cVkHY7zjkmqlCWe_AOPeDgkJn6cAW2ICquF_s_TDzmlaCXo3BOO6s3EJa5cA4w4ODVl7b7lfcrJRG92HvFuObhSDs9Jk06JuoSkfswDjRroJGYtnjLOOfunxA7Jow-5m4SlDY7yzlm91SXeLDuN8g",
        "formattedAddress": "Cảng hàng không Miếu Môn, Trần Phú, Chương Mỹ, Hà Nội",
        "name": "Cảng hàng không Miếu Môn",
        "coordinate": {
            "latitude": 20.818958398000063,
            "longitude": 105.65322543600007
        },
        "compound": {
            "district": "Chương Mỹ",
            "commune": "Trần Phú",
            "province": "Hà Nội"
        }
    },
    {
        "placeId": "qIKNqcD3VlLdsxgbymexZJdntEumDqWC498AwxKheVabu8xLbrN90TtjvKMas3GhG68Ek3KmURm_j_kPvn1J4Etj_upmYTlkk7O0036_cVkHY7zjkmqlCWe_AOPeDgkZn6cAW2ICqQl_s_TDzmoJKXu7BOOWs3EJa78A4w4ODVl7b7lfcrJRGYeyZFuObhSBh9J806P2oSkfsmzjRroJGYtnjLOOfunxA7Jow-5m4SlDY7yzlm91SXeDuN8g",
        "formattedAddress": "Miếu, Dư Hàng Kênh, Lê Chân, Hải Phòng",
        "name": "Miếu",
        "coordinate": {
            "latitude": 20.843591333000063,
            "longitude": 106.67857880500009
        },
        "compound": {
            "district": "Lê Chân",
            "commune": "Dư Hàng Kênh",
            "province": "Hải Phòng"
        }
    },
    {
        "placeId": "4EyeZ_-rkDrn1AHtk6o6XMzUO9CJqEVG8NMB0ruqZ3HniiSSjc9QN_7sOJaLuHIx-8I8VYq6QUDK7CPUvbtFQ_P9RJGRujZ8__4nzLzPRVLL_Cv3ibpRSvzTK-SQkVH8-nQF5JO5RdPL7iP_iZFZTf3SK_a_z1FJ_NMr0JCQRU3I_UTPv4dVcv-KBfCIljNyjO4n--e7WVSI0yvCvZFVccrwP_CM6qW9T_4kj6IqrWUPL_D_2iM5BTvP9JNs",
        "formattedAddress": "Y Miếu, Văn Miếu, Đống Đa, Hà Nội",
        "name": "Y Miếu",
        "coordinate": {
            "latitude": 21.027144000000078,
            "longitude": 105.83936400000005
        },
        "compound": {
            "district": "Đống Đa",
            "commune": "Văn Miếu",
            "province": "Hà Nội"
        }
    },
    {
        "placeId": "mKxRfsQywu32xQOBrIJiWdv8JvH1h3ZhnP8ihu2rRCftnQjg3YCPVtnNDUGKauv1n6vxZw4G4Q2Pa_ib3rZZUQ_XHOtmC3WJb7u823a3eVEPa7TrmmKtAW-3COvWBgEBl68IU2oKoVF3u_zLxmIBIXOxEOueu3sNY7UA6wYGBVFzZ7FXerpZEY-6bFOGZhyJj9v826pmqSEXuwjrTrIBEYNvhuuGdLn5C7kG4-Zu6SJjaUi7nmd9QX-LsNco",
        "formattedAddress": "Vũ Miêu, Thứa, Lương Tài, Bắc Ninh",
        "name": "Vũ Miêu",
        "coordinate": {
            "latitude": 21.01693703441311,
            "longitude": 106.19799220273603
        },
        "compound": {
            "district": "Lương Tài",
            "commune": "Thứa",
            "province": "Bắc Ninh"
        }
    },
    {
        "placeId": "7e-rFJrEtBT1mVmHlkS7Jen_DOubKnZh2u0IxZ2AWHXrwzL9lrp-Z_W6Msec7Uh63ZZQgZncR2317Cr_UIFAZd31mfNomglhs7e423a3eVEPa7TrmmKtAW-3CjzqBgEBl68L12oKoVF3u_zLxmIBIXOzDOueu3kBY7cI6wYGBVFzZ7EHerpZEVe6bY-GZhyJj9v826pmqSEXuwjrTrIBEYNvhLuGduH5C7pgy-Zu6SFLa7S7nmd9QX-LsNco",
        "formattedAddress": "Thành phố Biên Hòa, Đồng Nai",
        "name": "Thành phố Biên Hòa",
        "coordinate": {
            "latitude": 10.949426604000053,
            "longitude": 106.81907867400008
        },
        "compound": {
            "district": "Biên Hòa",
            "commune": "Thanh Bình",
            "province": "Đồng Nai"
        }
    },
    {
        "placeId": "hjsZM8DzRfD88QqfgZo_2ffOM8OfpDp_xt4_2IbBSXjypyyeh_FFQuinGfeHqWtTXN5Nm4jDSfRi8hmahZ1FP-ryJ4Cdn0l88_Irn7DDSV7H8Cf7hbZdRvADfJ-icnV149t8Jx5-1SUDz4i_shZ1VWfHeJ_qzw0Fd8N8n3JycSUHE6EjDs4tZfvHzCfyEmj9-6-Ir94S3VVjz3yfOsZ1Zfcb8M_yApWNf84WSL4anVU_H8OT6hMJNQv_xKNc",
        "formattedAddress": "Quận Long Biên, Hà Nội",
        "name": "Quận Long Biên",
        "coordinate": {
            "latitude": 21.062644799000054,
            "longitude": 105.90181166900004
        },
        "compound": {
            "district": "Long Biên",
            "commune": "Việt Hưng",
            "province": "Hà Nội"
        }
    },
    {
        "placeId": "RNiYYHhFiItbe-AbPqL1GaPDrXO6dv3Mk7MEv35u-dCPexwH8hbG_X_DpI96rVdsj6Z8N-lWvXSLn-qn5P7yYZPCdFegirpgl68Qz6qjbUUbf6D_jna5FQejHP16EhUXw7scR34etUVjr-jf0nYVNWenGP-Kr20Vd6Mc_xISEUVnc6VDbq5NBZuueEeScgidm8_oz55yvTe_rxz9AqYVBZd7kK-SYvXtH6503_J6_TVff6CvinNpV8FrpMM8",
        "formattedAddress": "Thành phố Điện Biên Phủ, Điện Biên",
        "name": "Thành phố Điện Biên Phủ",
        "coordinate": {
            "latitude": 21.401318692000075,
            "longitude": 103.02921372200007
        },
        "compound": {
            "district": "Điện Biên Phủ",
            "commune": "Him Lam",
            "province": "Điện Biên"
        }
    },
    {
        "placeId": "3poT9UdLmdiM7jn0noK5bfnvE-aYKKYFP2f4lwp6rdXze_jXGrd9HUe3GIsitlVta35kpQqmFU4Xi8lNinrooVO_9JfabqWF73-w17a7dV0DZ7jnlm6hDWO7BOfaCg0Nm6MEX2YGrV17t_DHym4NLX-_AOeSt3UNb7sE5woKCV1_a71bd7pVHYO2tF-KYhCFg9fw16ZqpS0btwTnQr4NHY9jiLeKeu31B7Zsx-pi5S1HZ7i3kmtxTXOHvNsk",
        "formattedAddress": "Điện Biên, Việt Nam",
        "name": "Tỉnh Điện Biên",
        "coordinate": {
            "latitude": 21.385600923000027,
            "longitude": 103.01552992100005
        },
        "compound": {
            "district": "Điện Biên Phủ",
            "commune": "Mường Thanh",
            "province": "Điện Biên"
        }
    },
    {
        "placeId": "viKc5VPlvevbniH9nNlla-3oA_OqrCR93Z5W3J-_X2roxDXmh79bXub76tmp8m0lvVb5hJLbIEry5gDPhoV5Zu7ED8KbgZpE6egx2nHZqkGTd6j3hn6xHXOrFPfKGh0di7MUT3YWvU1pG-DX2n4dP6VvEPeCp2Udf6sU9xoaGU1veV-vZqZFDZOlSE-aegCVk8fgx7Z6tT0LpxT3Uq4dDZ9zmKeaaQ79F6Z81_px5T1WI6indnthXWODrMs0",
        "formattedAddress": "Thành phố Dĩ An, Bình Dương",
        "name": "Thành phố Dĩ An",
        "coordinate": {
            "latitude": 10.90429113700003,
            "longitude": 106.76875891200007
        },
        "compound": {
            "district": "Dĩ An",
            "commune": "Dĩ An",
            "province": "Bình Dương"
        }
    },
    {
        "placeId": "CCZQnc_x8oXH8Tmeh51YfsffPpyEmzdf8dgTn7fDSFH94k3rssA3YOnzJpiGp0Q-weE11La1P0rr8SbbgcJ2TOqHTu2AnWou8vMqwBbHCSF-m8Sb6hMZcR7fe6emdnFx5Jt73xp60SEHy4_HthJxUQPAu3_uTwlxE8d4mst2dSEDF8EnCXYpYsvKHCP1_mz5_6uMqgfa2VFny3iaFsJxYfFj9Mv2BpMdeYoQu5YemVE7G8TL7hcNMQ_7wKdY",
        "formattedAddress": "Thành phố Bắc Ninh, Bắc Ninh",
        "name": "Thành phố Bắc Ninh",
        "coordinate": {
            "latitude": 21.188102128000025,
            "longitude": 106.07231003800007
        },
        "compound": {
            "district": "Bắc Ninh",
            "commune": "Suối Hoa",
            "province": "Bắc Ninh"
        }
    },
    {
        "placeId": "mlTd8bJYpvPp2CrmtumaO7DbEO2F8VRjxds2453Bakfw4C7YnKc3cfHeKtuGpEhKXeEU27a3SMY62T7AWJ2Af_3fPvR2pFxO8vMqwbHCSF_G8Sb6hLdcR_HeJumdnFx5994Ixp60SEHy4y7tgZxUQPDfJkyEwlxE8d77Jp2dSEDF8EnCsopYf_KHCP2Fm9Z_6j4q9oW241ny3ibPsJxYfMf9Mv2BpGJe8oQu5YemVE7G8TL7hBcNMQ_6TKfA",
        "formattedAddress": "Hà Nội, Việt Nam",
        "name": "Thành phố Hà Nội",
        "coordinate": {
            "latitude": 21.02819540300004,
            "longitude": 105.85415977800005
        },
        "compound": {
            "district": "Hoàn Kiếm",
            "commune": "Lý Thái Tổ",
            "province": "Hà Nội"
        }
    },
    {
        "placeId": "MeapUNcxUHD5_BzbhZVENv2KA8-SknFX8f8X8IWrQ3P487UaO78xtX-XyG72Jqlc0_9cL2ZLPS-Y1_iH4vsxDV-bUOfK5qM6c_fwlV77NR87J_in-i7hTSP71KdGSk1N2-NEHyZG7R0797CHii5NbT__QKfS9zVNL_tEp0pKSR0_K_0bNvYVDUv2IV_KKlAdw5ewl-Yq5W1b90SnAv5NXc8jyPfKOq21R_Ysh6oipW0HJ_j30isxDTPH_Jtk",
        "formattedAddress": "Thành phố Lạng Sơn, Lạng Sơn",
        "name": "Thành phố Lạng Sơn",
        "coordinate": {
            "latitude": 21.852283270000044,
            "longitude": 106.76288077600009
        },
        "compound": {
            "district": "Lạng Sơn",
            "commune": "Vĩnh Trại",
            "province": "Lạng Sơn"
        }
    },
    {
        "placeId": "KW-TW4j8KYj-_xfNuahHbKnQIeO5_Fd0uv9H2Y66S_74UjqSQ8xxSsnXvdeOqUt-ytYQ2wvMbjPm_BiQvpJiNf_iNda-p2U1_fwlzr7NR1DJ_ub1i7hTSCnR_uaSk1N2-NEHyZG7R0797CHii5NbT__QKfS9zVNL_tEp0pKSR0_K_0bN4vYVXcP2IB_KKlDFw5exX-Yq5JVb90VvAv5NXc8jyPfKOq5xR_YshbYip6kHJ_j30isxDTPH_Jtk",
        "formattedAddress": "Lạng Sơn, Việt Nam",
        "name": "Tỉnh Lạng Sơn",
        "coordinate": {
            "latitude": 21.846378644000026,
            "longitude": 106.75813781900007
        },
        "compound": {
            "district": "Lạng Sơn",
            "commune": "Chi Lăng",
            "province": "Lạng Sơn"
        }
    },
    {
        "placeId": "utQkjpnMBsrj6RLJ9K98RPT4R9O6rG1xA4foVlJeRTjDKxTzNlq1WVfnSAZWKyEJM_PsgV5S9MfX06FI3jpAOScv3YNW7gEp7rPkgy7v4QlXI-yzwjr1WTfv7LOOXllZz_dRGzJS-Qkv46QLnjpZeSvrVLPG4yFZO-9Qs15eXQkrP-kPIuIBSdfiNAvePkTR14Okg_OO8XlOP1CzF-JZSds33OPeLrmhU-I4k742LXkTM-zjxrI9GSfT6I9w",
        "formattedAddress": "Van Lang University, 45 Nguyễn Khắc Nhu, Cô Giang, Quận 1, Hồ Chí Minh",
        "name": "Van Lang University",
        "coordinate": {
            "latitude": 10.76294136000007,
            "longitude": 106.69343117300008
        },
        "compound": {
            "district": "Quận 1",
            "commune": "Cô Giang",
            "province": "Hồ Chí Minh"
        }
    },
    {
        "placeId": "WOEM1n22ToTr8Uzmh502curwJvmGnlRQxvE63YG0av7B4SrZssBjWPLfJuayikSBwIY2mkWaTLb97TrHgaY3S_DiDMCEpX5k8vMqwV3CSLHG8Sb6X7dcR_HeJumdnFx5994Ixp60SEHy4y7thJxUQPDfJvuywlxE8d4m3Z2dSEDF8EnCsopYf_KHCP2Fmz5_6uMq9oW2VFny3ibPsJxYfMf9Mv2BpGJe8oQu5YemVE7G8TKThcPpQ0zwBKfs",
        "formattedAddress": "Huyện Hạ Lang, Cao Bằng",
        "name": "Huyện Hạ Lang",
        "coordinate": {
            "latitude": 22.688941422000028,
            "longitude": 106.66986704700008
        },
        "compound": {
            "district": "Hạ Lang",
            "commune": "Thanh Nhật",
            "province": "Cao Bằng"
        }
    },
    {
        "placeId": "e_ZlSPL9icbpWD3X4biHRsdqGN9EwYZOweAM5ki3gOl9_TbCRMBM6_HznOMmpoQ5xoU22ly0h1_A2xvxSLWBR8acDPNIuLFhXfMqwUjChPJf8Sb6XLedR_HeJulcnJ55994Ixki0hEHy4y7tVJyyQPDfJvtcwpNE8d4mnd2dskDF8EnCWIqFf_KHCP0-m4V_6uMq9lS2sFnypibPWN6BfMecMv1ipIde8oBQu5VSmhU7G8TL7TMOBQ_7wKdY",
        "formattedAddress": "Thành phố Vinh, Nghệ An",
        "name": "Thành phố Vinh",
        "coordinate": {
            "latitude": 18.67052758400007,
            "longitude": 105.68424234700007
        },
        "compound": {
            "district": "Vinh",
            "commune": "Lê Mao",
            "province": "Nghệ An"
        }
    },
    {
        "placeId": "J9nCt9xBAmpLG8Difhlmcf8bwP52FWTZe8N4SnrbCSVD840zqs8E2YejzTOSHpkU_wOA01be0Pkvq8CfagMN3T-uGL-yBnGtR8_IrwLDDSV7H8Cf7hbZdRvDfJ-icnV149t8Jx5-1SUDz4ujshZ1VQS_e8YD6w12n8N8ns5xFSZzE8UjDs4tZfvOGCfyEXD9-6-IrmoT3VVjz3yfOsZ1Zfcb8M_yApWNf84Uv5IZNVU_H8Kf6hDNNQv_xKNc",
        "formattedAddress": "Thành phố Trà Vinh, Trà Vinh",
        "name": "Thành phố Trà Vinh",
        "coordinate": {
            "latitude": 9.937185139000064,
            "longitude": 106.34032822300009
        },
        "compound": {
            "district": "Trà Vinh",
            "commune": "Phường 1",
            "province": "Trà Vinh"
        }
    },
    {
        "placeId": "hydgRO5Gh_Ct6CDenoRBv97GJ4WdZy6C6MEKhq7aUUjk-1Tyq9ku6N55Hdmfvl3r2Pgsza-sJlPy6D_CmNtvV_OeN_SZhHNJ6-oz2KjbUUbf6D_jna5FVZjHXvBBiug_hMcRhUXfUVjr-jf0nYVNWenGP-Kr20Vd6Mc_xISEUVnc6VDbq5NBZuueEeScgidm8_oz75yvTUDrxz_WqYVBZd7kK-SYvXtH6503_J6_TVff6CviInNpVWufpMM8",
        "formattedAddress": "Vĩnh Long, Việt Nam",
        "name": "Tỉnh Vĩnh Long",
        "coordinate": {
            "latitude": 10.254148550000025,
            "longitude": 105.97204881100004
        },
        "compound": {
            "district": "Vĩnh Long",
            "commune": "Phường 1",
            "province": "Vĩnh Long"
        }
    },
    {
        "placeId": "FFW47p1QQ6zbj9_9rQNDbfXKWeuYunYh6cQq2p67cSbbwgT5gLRQWvXvCOWu3kAm7JoI_6yqWCfi_zr8nbknYfWYEMGdq31E7u823a3eIFTa7TrmmKtAW-3COvWBgEBl68IU2oKoVF3u_zLxmIBIXOzDOueu3kBY7cLtwYGBVFzNZOvXerpZEY-yb7uGZhyJj9v826kGqSJnuwjrTRYBEYNvhLuGduH5C7pgy-Zu6SFLa7S7nmbpQX-LsNco",
        "formattedAddress": "Thành phố Vĩnh Long, Vĩnh Long",
        "name": "Thành phố Vĩnh Long",
        "coordinate": {
            "latitude": 10.251461949000031,
            "longitude": 105.97673716800006
        },
        "compound": {
            "district": "Vĩnh Long",
            "commune": "Phường 1",
            "province": "Vĩnh Long"
        }
    },
    {
        "placeId": "9MUuglzzy8LD5gDTjbJQbfqDTeeGoVxd8dxB4pqaZjjz2yqctsZydO70SKKEnD4_8pdB9YKZXz727Tr6mrBEZMTvSfWarFBWWZku97XGTPZb9SL-gLNYQ_XaIu2ZmFh989oMwpqwTEX25yFrpgJhQRPTbIv-2xlhA9doi2ZmZTETB9E3Gto5ce_aDDPmBnzp77ucuXIGyhV322iJQ8pi0eMP5NvmFoGZa9oAq4YOiUErC9Tb_gcdIR_r0LdI",
        "formattedAddress": "Huyện Tam Đảo, Vĩnh Phúc",
        "name": "Huyện Tam Đảo",
        "coordinate": {
            "latitude": 21.39335066700005,
            "longitude": 105.61473364700004
        },
        "compound": {
            "district": "Tam Đảo",
            "commune": "Hợp Châu",
            "province": "Vĩnh Phúc"
        }
    },
    {
        "placeId": "9I6PmULFyjbjjQbSlJFgSfiPM5eAlmhq4NIgl4iRUlPL5z1xSuIDqe_frNE24ylY048Ue17uXi1fg6k-sNfOUdc3qQ76MkXxb-Pkgy7vIQlXM-yzwjr1WTfvULOOXllZz_dQCzPu-Qkv4lCTn6ZZeSvrVLPG4yFZO-9Qs15eXQkrP-kPIRoBSdfiNuPcCkTR14Okg_I-8XlP41CzFupZSds33OPeLrmhU-I4k742sXkTM-zjxj8lGSfT6I9w",
        "formattedAddress": "Huyện Côn Đảo, Bà Rịa-Vũng Tàu",
        "name": "Huyện Côn Đảo",
        "coordinate": {
            "latitude": 8.687048941000057,
            "longitude": 106.61458500300006
        },
        "compound": {
            "district": "Côn Đảo",
            "commune": "",
            "province": "Bà Rịa-Vũng Tàu"
        }
    },
    {
        "placeId": "lF3-1ZYANZf68j3OlY9xevnIS46UtwNi5Mp1-KGJU1ThlCXTodB5YuPLX8qPtEtY-si1jKIqJHPt7rTOKpatfWePcC_WXpV9d4eA50qLRW0zV4jXpl6RPVOLNNYCOj09q5M0bX42nW1Lh8Po9l49HU-PMNeih0U9X4s01zo6OW1PW41rRoZlLbOGUG-6WiC1s-fA55ZalR0rhzTXco49Lb9ROIe76t3Hiku499pK1R03V4iHo4dBfUO3jOsU",
        "formattedAddress": "Đảo Ó, Mã Đà, Vĩnh Cửu, Đồng Nai",
        "name": "Đảo Ó",
        "coordinate": {
            "latitude": 11.111538000000053,
            "longitude": 107.10485500000004
        },
        "compound": {
            "district": "Vĩnh Cửu",
            "commune": "Mã Đà",
            "province": "Đồng Nai"
        }
    },
    {
        "placeId": "21WEgt6Hq1Xq-hXykK1WJd75HYWev11A2OtEgZ-TcyPfniTPhbwmZdnBXc2FvFFI7sEzwJuEc1mY6uiEVYIiYqs884XHviNr6-oz2KjbUUbf6D_jna5FXujHP_CEhUVg7scR34etUVjr-jf0QfCdWYXGP-JN6UVd6Mc_xISEUVnc6VDbq4pBZuueEZOc5Cdm8_oz75yvTUDrxz_WqYVBZd7kK-SYvXtH6503_IJ6_TVff6CvinNpVWufpMM8",
        "formattedAddress": "Mộ Đạo, Quế Võ, Bắc Ninh",
        "name": "Mộ Đạo",
        "coordinate": {
            "latitude": 21.128015789000074,
            "longitude": 106.15248993200004
        },
        "compound": {
            "district": "Quế Võ",
            "commune": "Mộ Đạo",
            "province": "Bắc Ninh"
        }
    },
    {
        "placeId": "oXHH9iGah_jC307-sbHRVvlDOphf7pp7soKGyCn5T1_ugfRam0tt6vf2oEGHPVx48uUt2o2banbt3AvRsMZiPMDZH9-Zojg69fQtxrbFT1jB9iH9g7BbQPbZIe6am1t-8NkPwZmzT0b15Cnqg5tTR_fYIfy1xVtD9tkh2pqaT0fC907FtY1fePWAD_qCnDl47eQt8YKxU1712SHIt5tfe8D6NfqGo2VZ9YMp4oChU0nB9jX8gsRLRCPmULvc",
        "formattedAddress": "Đào Xá, Thanh Thủy, Phú Thọ",
        "name": "Đào Xá",
        "coordinate": {
            "latitude": 21.21957815600007,
            "longitude": 105.29019423900007
        },
        "compound": {
            "district": "Thanh Thủy",
            "commune": "Đào Xá",
            "province": "Phú Thọ"
        }
    },
    {
        "placeId": "LGBN88rn44_h-yyZjZc8eOD6BuyMlPtazF4w14uL62nL6yDTvrhSRPjUT1--4gE5Pyqw8kLyMRnf3kDDNi689QfroBsqOvHRu-Pkgy7vIQkbM--NSjr3wLFXU-1aXllZz_dQCzJS-Qkv46STnjpZeSvrVLPG4yFZO-9Qs15eXQkrP-kPIuIBSdfiNAvdXkTSP4Okg_HW8XlP41CzFupZSds33OPeLrmhU-I4k742sXkTM-zjxj8lGSfT6I9w",
        "formattedAddress": "Huyện Chợ Mới, Bắc Kạn",
        "name": "Huyện Chợ Mới",
        "coordinate": {
            "latitude": 21.881366824000054,
            "longitude": 105.78133005200004
        },
        "compound": {
            "district": "Chợ Mới",
            "commune": "Đồng Tâm",
            "province": "Bắc Kạn"
        }
    },
    {
        "placeId": "X_Mo4aS1-lDN81bVlKfUQtTiIuKXtF9Y-o1Py6K0OU7S4inlk9JfKPqANeCPtCRi1OfYlzJWPR0rjzQCOpI12KeXwH9OS01te4eA50qKSW0zVSzXp0ZfiVOJPNfqOj09q5M0b1Y2nW1Lh8D3-l49HU-PMNeih0U9X4s01zo6OW1PW41rRoZlLbOGUG-6WiC1s-fA55ZalR0rhzTXco49Lb9TuIe6St3FN4Zc99pS1R13V4iHoltBfUO3jOsU",
        "formattedAddress": "Huyện Chợ Đồn, Bắc Kạn",
        "name": "Huyện Chợ Đồn",
        "coordinate": {
            "latitude": 22.16104314100005,
            "longitude": 105.59780695700005
        },
        "compound": {
            "district": "Chợ Đồn",
            "commune": "Bằng Lũng",
            "province": "Bắc Kạn"
        }
    },
    {
        "placeId": "5G2l1E7d45b78y_Fm6p4VNXgCs2VXlZc0_LT9JQeWm_57ySBktJWaePgW9COtHcr1JckyJamTk3SyQn7ladaVY7hHtSTqlpz4OE400_Qk6PU4zToWqVNVePMNPuPjk5r5cwa1IymWlPg8Tz_lo5GUuLNNOmg0E5W48w0z4-PWkrXUlvQoJhK4uCVGu-XiSxt-PE4tJfkRkvgzDSkoo5KbtPXvIO-TtnBM4JY895W0RlzU4yDpl9FeUeziO8Q",
        "formattedAddress": "Huyện Chợ Mới, An Giang",
        "name": "Huyện Chợ Mới",
        "coordinate": {
            "latitude": 10.549020787000075,
            "longitude": 105.40523870700008
        },
        "compound": {
            "district": "Chợ Mới",
            "commune": "Chợ Mới",
            "province": "An Giang"
        }
    },
    {
        "placeId": "APaPjsj1zXb96Rzjlr12NPn6RfG-rmpr9esc9ri_TzGJ-wT1m8hic4jQJs7xr1BO-ETT643LVUP54RvelpYyRj6OF5a5k08z-vsiybnKQFfO-S7yjL9UT_nW4eGVlFRxLtb_zpa8QEn66ybljJRcSPjXLvO6ylRMUNYu1ZWV-UhA-EHKuoJQd_qPAPWNkzZ34usi_o2-XF3H61i6uuMdQdM_1OpSJrGpW-owm7Y-uXEbO-TrzjctES_b4Id4",
        "formattedAddress": "Huyện Chợ Gạo, Tiền Giang",
        "name": "Huyện Chợ Gạo",
        "coordinate": {
            "latitude": 10.350069542000028,
            "longitude": 106.46322533200004
        },
        "compound": {
            "district": "Chợ Gạo",
            "commune": "Chợ Gạo",
            "province": "Tiền Giang"
        }
    },
    {
        "placeId": "T8jmk8lPi1DR9gPVio1UL-WRLY2m1UtS5PobjKWNT13h2CHYkbNDRur3Ifql1rF34eoh8qdTonbpW5L3pqFbSOQhLoqmjCBQ5eQ91qbVX0rR5jHtk6BLSObJMf6Ki0Stu4Mkf0YmjX1bl5jn6k4tDV-eWMez01UtT5qUxyoqKX1fS517VpZ1PaOWQH-qSjClo_fQ94ZL-Q06hyTHYp-VPa9CEJeqWs3VJ5eo58pCxQ1nR5iXsktRbVOnnPsE",
        "formattedAddress": "Huyện Chợ Lách, Bến Tre",
        "name": "Huyện Chợ Lách",
        "coordinate": {
            "latitude": 10.261068013000056,
            "longitude": 106.11910689100006
        },
        "compound": {
            "district": "Chợ Lách",
            "commune": "Chợ Lách",
            "province": "Bến Tre"
        }
    },
    {
        "placeId": "74Hfm1RQnefs0-o6gfBYIuzhJoee42Jc2scMqqqGenjcmCm0msdbIPbhEN3tw35n6q5RuPz3UGPa_iaWQ9mtQ_X1Ot2C3WJbx-423q3mVEPa7TqrmPVAW-3COoCB2kBl68IUqILxVF3u_zKAmOdIXOzDOt6uwUBY7cI6gYHeVFzZ7FWWruFEY-6bFIeZ6iJj9v82qpnTSEXuwNjqArOFEYNvhLriPnX5C7pgyQflSSLra7S7fRMqZX-LsNbo",
        "formattedAddress": "Quận 7, Hồ Chí Minh",
        "name": "Quận 7",
        "coordinate": {
            "latitude": 10.711520332000077,
            "longitude": 106.73542207700007
        },
        "compound": {
            "district": "Quận 7",
            "commune": "Phú Mỹ",
            "province": "Hồ Chí Minh"
        }
    },
    {
        "placeId": "3qWfwDunVSfA6CvGnMBjUfPxL-mItU1hwYQ33rfwSXHHpUT8h_Frf8bgN_iHTTuA8fCm-DsrRYHw80XVhZpdUP-HDZKAwAT9w8_Ir27DDSV7H8Cf7hbZdRvDfJ-icnV149t8Jx5-1SUDz4lzshZ1VL_HeQfqzw11F8N8n3JycSUHE8UjDs4tZfvOGCfyEmll-6-Ir94S3P1jz3yfOsZ1Zfcb8M_yApWNf84Uv5IanVU_H8DP6hMJNQv_xKNc",
        "formattedAddress": "Quận 8, Hồ Chí Minh",
        "name": "Quận 8",
        "coordinate": {
            "latitude": 10.740407144000073,
            "longitude": 106.66585882900006
        },
        "compound": {
            "district": "Quận 8",
            "commune": "Phường 5",
            "province": "Hồ Chí Minh"
        }
    },
    {
        "placeId": "VQpGxPBahlzy4ijUn6poPsLdMPazpetSNfIR1YiexD78hhmfgsFOUOjwZJGEpw5r6Nk8_4XAWkL8_xL9g7d0c-jzOP-FnHx_8PEow7PASl3E8yT4hrVeRfPc8-ufnl57gyTcxPW2SkOc4Szvhp5WQvLdJPmwwF5G89wk35-fSkLH8kvAsIhaffCFCv-HmTx96OEo9Ie0Vlvw3CTNsp5aX8WkMP-D_2B-8KY9s54WkVkzE8zD5h8FOQfzyK9Q",
        "formattedAddress": "Quận 2, Hồ Chí Minh",
        "name": "Quận 2",
        "coordinate": {
            "latitude": 10.791839955000057,
            "longitude": 106.74942764900004
        },
        "compound": {
            "district": "Thủ Đức",
            "commune": "An Phú",
            "province": "Hồ Chí Minh"
        }
    },
    {
        "placeId": "cvhLZ7yIBvBy40LXh8w5yDfQK8iPzFHJS_4R2IuQbJ3v7iDJqI5W803vPOiEqmT_V9ce7ouQZPhf7jjTipVG83zVFZKS5ukn8Uf0kz7_MRshJ_yj0irlS_3fQVueTkij5T9BSyJC6RvxO7SDjipJa_krRKPW8zFL_TtAo05OTRstx_kfMvIRW_HGJBv-LlTDkV_Mk7Yu4Wuf80CjBvpJWyVDzPPOPqmz8QIog64moWshN_zz1i81C8FP-J9g",
        "formattedAddress": "Quận 12, Hồ Chí Minh",
        "name": "Quận 12",
        "coordinate": {
            "latitude": 10.852083496000034,
            "longitude": 106.62970044700006
        },
        "compound": {
            "district": "Quận 12",
            "commune": "Tân Chánh Hiệp",
            "province": "Hồ Chí Minh"
        }
    },
    {
        "placeId": "TktUlVcsu1P56xL0Ur-XT-P7POdCsnSL_I08zHe-Qov0-R7VuMtsceP7Hum4gF5jzeggmYuvNXb4jRXvurxOMMv6Q9KWvF43-Pkgy7vIQlXM-yzwjr1WTfvULOOXllb7_XMCzJS-QtT46STnjpZe40rVLPG4yF1b6-9Qs15eXQkrP-kPIuIBSdfiNAvePkTR14Oms_I8gXlP41LzFupZSRs33dveLrmg4-I4k742sXkTM-zjxj8lGSfT6I9w",
        "formattedAddress": "Quận Gò Vấp, Hồ Chí Minh",
        "name": "Quận Gò Vấp",
        "coordinate": {
            "latitude": 10.831341945000077,
            "longitude": 106.66878929000006
        },
        "compound": {
            "district": "Gò Vấp",
            "commune": "Phường 10",
            "province": "Hồ Chí Minh"
        }
    },
    {
        "placeId": "nvDzmVZWwuHx2iz8h5l8RfCHHZictE1y8fAG2Z9anGPCh9A7igkZ0P8XgT-mEp14-64cG6pyYWnv34yzrhqU9YivbEvyfw0ZyhPEow7PASl3E8yT4hrVeRfPcJOufnl579dwKxJy2SkPw4Szvhp5WQvLdJPmwwF5G89wk35-fSkLH8kvAsJFaffBfCoiH_6SF6H0o9Ic8tFvw3CTNsp5afsX_MP-DpoNc8IYs52CkhUzE8zD5h8FOQfxO8tQ",
        "formattedAddress": "Cảng hàng không Quốc tế Nội Bài, Phú Cường, Sóc Sơn, Hà Nội",
        "name": "Sân bay Nội Bài",
        "coordinate": {
            "latitude": 21.21743891600005,
            "longitude": 105.79886420900004
        },
        "compound": {
            "district": "Sóc Sơn",
            "commune": "Phú Cường",
            "province": "Hà Nội"
        }
    },
    {
        "placeId": "-lHXjK9duK_g6DTegLFjT877EdaOyE1HyOkF74--QXTi9D_LiVRNyfj4O_6Vcmwwz4w_0429VVbJ0hKVjrxBTs_gBf_4sUFo-ogjyPvLQVbP-C_zjb5VTvjXL-CUlVVw_tcBz5e9QUj76ifkjZVdSfnWL_K7y1VN-Ncv1JSUQUnM-UDLu4NRdvuOAfSakoh240XqjDe__1D7Iy_GuZVRdc270O_SIrWtX-40n7I6vXUfP-DvyjMpFSvf5IN8",
        "formattedAddress": "Huyện Núi Thành, Quảng Nam",
        "name": "Huyện Núi Thành",
        "coordinate": {
            "latitude": 15.430682134000051,
            "longitude": 108.66160245600008
        },
        "compound": {
            "district": "Núi Thành",
            "commune": "Núi Thành",
            "province": "Quảng Nam"
        }
    },
    {
        "placeId": "zVzy30uHiCzwhyiZgKROSf_gBuefmGRZ6IVH2IVamX384EuYsF5KR07Z6_SepGA4F9oQ49YvDVjzC6zjhhphGRM30PMecwEU68PEow7PASl3E8yT4hrVeRfPcJOufnl579dwKxJy2SkPw4Szvhp5WQvLdJJGwwF5G89yD-SSfSkLH8p_AsIhaffCFCv-khzx96OEo9Jm0Vlvw3CTNsp5a88V-X_-DpmAw8Ib_54WkVkzE8zD5h8FOQfzyK9Q",
        "formattedAddress": "Nui, Tâm Thắng, Cư Jút, Đắk Nông",
        "name": "Nui",
        "coordinate": {
            "latitude": 12.61249032400002,
            "longitude": 107.91908483400005
        },
        "compound": {
            "district": "Cư Jút",
            "commune": "Tâm Thắng",
            "province": "Đắk Nông"
        }
    },
    {
        "placeId": "2E29r87_vGDYwSyYikGuWuvBFYOvRS4j88Anz5uDRX_ox1T1n7FRWu7GNM2FvkFc6cAKwKixVmnZ1gG_mO9RSN_oL_CYr3xrvuoz66jbUUbf6D_jna5FROjHP_CEhUVe7IscR34et6FjrUTf0nYX6WenGP-Kr20Vd6Mc_xISEUVnc6VDbq5NBZuueEeScgidm8_oz75yvTUDrxz_WqVVBZd7kheSYK3tH6503_J6_TVff6CvinNpVWufpMM8",
        "formattedAddress": "Ốc Núi, Tây Sơn, Pleiku, Gia Lai",
        "name": "Ốc Núi",
        "coordinate": {
            "latitude": 13.981164000000035,
            "longitude": 107.99691900000005
        },
        "compound": {
            "district": "Pleiku",
            "commune": "Tây Sơn",
            "province": "Gia Lai"
        }
    },
    {
        "placeId": "gNsJfv7cmN3o_An2g6hjjuzvUSGru3_k7OBQ461AWqr-7hHgnSR3fNrsBYCv30Vb7cYr_pjeVif0mg7Lg4NjU-ObArusg1om7-43hqzfVULb7Dvn9KpBWpnDO_TsgUFk6sMV24OpVVzv_jPwmYFJXe3CO-av30FZ7MM7wICAVV3Y7VTfr5dFYu-cFeBFhppi95g36yOrSUTvwzvSrYFFYdrgL-CcuX9D75kz-Jq7SVPb7C_mmN5RXuMPtNMs",
        "formattedAddress": "Núi Mỏ, Hồng Kỳ, Sóc Sơn, Hà Nội",
        "name": "Núi Mỏ",
        "coordinate": {
            "latitude": 21.314073957000062,
            "longitude": 105.83618902500007
        },
        "compound": {
            "district": "Sóc Sơn",
            "commune": "Hồng Kỳ",
            "province": "Hà Nội"
        }
    },
    {
        "placeId": "TUwz04M76PdY3TCfs7JZxEbdCZazoDI_79w70oSfWWP020jph61NZMPbPNGZol1AE9dwW3LStSnXFyknzhKJNVMP0HeOEs2B39_YvxLTHTVrD9CP_gbJZQvTbI-yYmex8WdsNXZuxw0T35ivygZlRRfXaI_63x1lB9Nv02JiYTUXAI_XHt4-jeveCDfiAXZ567-Yv84CzUVz32yPKtZldecL4N_iEoWdb94Er4IKjUUvD9Df-gMZJRvv1LNM",
        "formattedAddress": "Núi Du, Kim Đức, Việt Trì, Phú Thọ",
        "name": "Núi Du",
        "coordinate": {
            "latitude": 21.372022392000076,
            "longitude": 105.37178979800007
        },
        "compound": {
            "district": "Việt Trì",
            "commune": "Kim Đức",
            "province": "Phú Thọ"
        }
    },
    {
        "placeId": "ktbW79Tybff_5TKJ_e0iZpPkGIr-yUBE0vUuoJXNfnfV9T7UpuJMWpXPKp7hjlBRppIijqLTWGnp-S6xldQjX-T2GKKQ5Wpw5tU-56XuXEvS5TKjkP1ITOXKMoiJ0lNI40kcoIr5XMrmVTqIkO9AVOTLMtamyUhQ5coyWIldXFTR5ImeVpulMa-aTHI-R4ipr_vc-opHbQE3myjKIpOlMaNPpJrCV8XZK5pA6h5OyQFrS5SbXkcJYV-rkPbI",
        "formattedAddress": "Nhà Thờ, Kim Sơn, Sơn Tây, Hà Nội",
        "name": "Nhà Thờ",
        "coordinate": {
            "latitude": 21.095216849000053,
            "longitude": 105.47794319200005
        },
        "compound": {
            "district": "Sơn Tây",
            "commune": "Kim Sơn",
            "province": "Hà Nội"
        }
    },
    {
        "placeId": "v1mT0x6Ty8tQ_SDUjZNr5lTuK5aJqlFt_v1I1IeXVXb-1DvvjIdVS_z_SPORqlVL_daM7qs7RjfkiohBzpNzQ_OL2xK8lko2__4nzLzPRVLL_Cv3ibpRSvzTK-SQkVF0-tMFy5O5RUz_7iPgiZFZTf2eK9K_z1FJ_PYr0OSQRU2Q_UTPyIdVcv-KBfCIlvxy5zMn-4i776lT_0yvCvZFVccrwP_CMqW9TVYkj6Iqr_0NZ_D_2iM5BTvP9JNs",
        "formattedAddress": "Nhà Thờ, Bích Hòa, Thanh Oai, Hà Nội",
        "name": "Nhà Thờ",
        "coordinate": {
            "latitude": 20.916724469667987,
            "longitude": 105.76044372802534
        },
        "compound": {
            "district": "Thanh Oai",
            "commune": "Bích Hòa",
            "province": "Hà Nội"
        }
    },
    {
        "placeId": "TZEb-eJ3XVz6Gx_wy41XdeXiNf-W0E51-OFa1Y3Sb2P67gPqodFbYtPILcuT0yRC4PI5zpSPVy3kyz2Po6RXtfnjX46SKFu74eA50qLRW0zV4jXpl6RPVOLNkvo1j09q5M2O1YO2nW1Lh8D3-l49HU-PMNeih0U9X4s01zo6OW1PW41_RoZlLbICUWuGWiC1s7vA55ZalR0rhzTXco49L-m_uIe6St3FL4Zc99pS11EfV4iHoltBfUO3jOsU",
        "formattedAddress": "Nhà Thờ, Phước Tuy, Cần Đước, Long An",
        "name": "Nhà Thờ",
        "coordinate": {
            "latitude": 10.52271713500005,
            "longitude": 106.60254017800008
        },
        "compound": {
            "district": "Cần Đước",
            "commune": "Phước Tuy",
            "province": "Long An"
        }
    },
    {
        "placeId": "QUhV_De7QlTl7-XyiKlUehT-8t7W8qmpG5_wTkpGXSDbMwzrLkKtQTPz_MvqKqo1K-v0m80SrkjHy7gjMiJZmT83xANO9hkx9_v8mzb3ORFPK_Sr2iLtQS_3SKuWRkFB1-9IEypK4RE3-7yLhiJBY_fxMKve-zlDT_dIq0ZGRUUTJ_EXOvoZMc_6LBPGJlzJA5u9z-om6WCb-0irDvJBUcMvxPvGNqG5S_ogi6YuqWELKnz79ic9AT_L3Jdo",
        "formattedAddress": "Nhà Thờ, Sơn Cương, Thanh Ba, Phú Thọ",
        "name": "Nhà Thờ",
        "coordinate": {
            "latitude": 21.407516146000034,
            "longitude": 105.16993165300005
        },
        "compound": {
            "district": "Thanh Ba",
            "commune": "Sơn Cương",
            "province": "Phú Thọ"
        }
    },
    {
        "placeId": "_2w3wBHY4zN3_yiAmbv3WlXtN9iDqugmVcURhoO17WZZ9CvhgN2Zfif0JMmd3-0nWew35J2D7CdB75zJWYbj7CNMUcec3e-bVe6Z3Kzf20JB7DvnmarsWkHDO_SAgepkVcNA24Op7xVJ_lzwmYHtXUHCO46v3-xZu8M75oBVgF1F7VTMfr5fvYiOaFeCYhvdiSf4365ir70RFwzvSrYHaYX_gL-Ccue9DSZkz-Jq721NR7C_mmN7jXkXtNMs",
        "formattedAddress": "Nhà Thờ, Cửa Ông, Cẩm Phả, Quảng Ninh",
        "name": "Nhà Thờ",
        "coordinate": {
            "latitude": 21.029100285048525,
            "longitude": 107.36603475138554
        },
        "compound": {
            "district": "Cẩm Phả",
            "commune": "Cửa Ông",
            "province": "Quảng Ninh"
        }
    },
    {
        "placeId": "i_eNuEP4I_rg0wbqlK09W_vLPNeOr0JB00ZS1byt1HbgrGCVigYxWszIAd2MrEZSy_oV3pS_fGr89zOUvclGWvzoJOu9kGx3-Pkgy7vIQlXM-yzwjr1WTfvULOOXllZz_dQCzJS-Qkv46STnjpZeSvrVLPG4yFZO-9SL15mXQkrP-pcsyIBSdfiNAvePkTR14Okg_I-8XlP41CzF45ZSdrr3OPf1NrmhU-I4k742sXkTMVzjxj8lG-_RJI9w",
        "formattedAddress": "Tử Dương, Cao Thành, Ứng Hòa, Hà Nội",
        "name": "Tử Dương",
        "coordinate": {
            "latitude": 20.770506382000065,
            "longitude": 105.73115157200004
        },
        "compound": {
            "district": "Ứng Hòa",
            "commune": "Cao Thành",
            "province": "Hà Nội"
        }
    },
    {
        "placeId": "ouvExOudx6jpxRbrq78kIInzKOee83xkvOw8woeCVlrdvAKQR8x8qOr_UH-tD2CFR5PkOxISHbFDq51_7k7JwJ_PdAumQv0Ej6Nsw66vYUkXc4DzEnq1GXetW8zyHhkZj7dwS-YSuUlvo9zTFnoZOWurhPEKo2MRe60Y86oeHUlrf2FOdqJBCZejnEvmfgSRl8OwwxJ-sTkPo1TznqoZCZt3nKJ6bvnhE6P806528TlTc4Sjqn9lWWeTMM5s",
        "formattedAddress": "Tú Dương, Mỹ Hiệp, Phù Mỹ, Bình Định",
        "name": "Tú Dương",
        "coordinate": {
            "latitude": 14.152134250000074,
            "longitude": 109.04913494500005
        },
        "compound": {
            "district": "Phù Mỹ",
            "commune": "Mỹ Hiệp",
            "province": "Bình Định"
        }
    },
    {
        "placeId": "K23ycnhrk8vglfvKLYmMgR6X7FGYjnCP-Mo4XpCJSkvT_49PoJhVJODMKGOg0kos-90Gz6OPTm348lfrjKZaLtXyW92UiWRD4OE406PQWk3U4zTolqVOtOPMNPuPVU6O5cwa1IymWlPg8Tz_lo5GUuLNNOmg0E5W48w0z4-PWuPXUlvQoJhK4uCVGu-XiSxt-PE45JekRkvgzDTdoo5KbtXPvIO-TtnBM4JY895W0RlzU4yDpl9FeUeziO8Q",
        "formattedAddress": "Từ Đường, Yên Thái, Yên Mô, Ninh Bình",
        "name": "Từ Đường",
        "coordinate": {
            "latitude": 20.08279820300004,
            "longitude": 106.00754371300008
        },
        "compound": {
            "district": "Yên Mô",
            "commune": "Yên Thái",
            "province": "Ninh Bình"
        }
    },
    {
        "placeId": "8-sOxVtatvJoX07khZ806ehwJPuEpPNSxJw434NW42HD4yj9bsMJacvTNFuSwiEZHwoQ0kbSYTn__7ziYg6c1SfLgDsKGtHxm8PEow7PASl3E8yT4hrVeRfPcJOufnl579dwKxJy2SkPw4Szvhp5WQvLdJPmwwF5G89wk35-fSkLH8kvAsIhaffCFCv-HmTyD6OEo9H20Vofw3CTNsp5afsX_MP-DpmBc8IYs54WkVkzE8zD5h8FOQfzyK9Q",
        "formattedAddress": "Tử Dương, Tô Hiệu, Thường Tín, Hà Nội",
        "name": "Tử Dương",
        "coordinate": {
            "latitude": 20.800019150000026,
            "longitude": 105.88592905700006
        },
        "compound": {
            "district": "Thường Tín",
            "commune": "Tô Hiệu",
            "province": "Hà Nội"
        }
    },
    {
        "placeId": "WUN6Q7aD9bL2IhzoP5lIs8P33PNEsgi87doq3na2T8X06QjBVLZuxsKCOuRcs3KO8ds-xnWFXKD55AjlVIJis8KDTZg-tUPG9vcuxVuATJfC9SKz_plYmPXaIu19mliw89oMwkWATJj25yrpRLZQxvTbIv9AmViZ9doi2e3BTI5E9E3Ge4Fcn_aFDDPl7gTqy7udc8l20Lpj22lDLeIVcoMP5Nvlag2ai9oAq4UqBUMfC9Tb_R4VIovr0LdI",
        "formattedAddress": "Tử Dương, Lý Thường Kiệt, Yên Mỹ, Hưng Yên",
        "name": "Tử Dương",
        "coordinate": {
            "latitude": 20.860630883000056,
            "longitude": 106.03311779100005
        },
        "compound": {
            "district": "Yên Mỹ",
            "commune": "Lý Thường Kiệt",
            "province": "Hưng Yên"
        }
    },
    {
        "placeId": "wv_re2KfSob0zTSYsqc9c-jxEpqytV5k9-8S2ZzrRklO28CdsPU5kTdfKHOww1qF8sIR24O2ZDn84Ab7hbpWg-iGPNhFwDWH8PEow7PASl3E8yT4pIZeRfPcJOu1nl579dwKxJy2SkPw4Szvhp5WQvLdJPmwwF5G89wk35-fSkLH8kvzsIhaffDACoWHmTx96OEo9I9e0Vlvw3CTNsp5afsX_MP-DpmBc8IYs54WkVkzE8zD5h8FOQfzyK9Q",
        "formattedAddress": "Suối 1, Tân Thanh, Lâm Hà, Lâm Đồng",
        "name": "Suối 1",
        "coordinate": {
            "latitude": 11.750291005000065,
            "longitude": 108.06607708400009
        },
        "compound": {
            "district": "Lâm Hà",
            "commune": "Tân Thanh",
            "province": "Lâm Đồng"
        }
    },
    {
        "placeId": "LpvBR_BisobH4gTXibZUaf6HSeOCpVhZ9djp5lienjxF3_eYYsJ2cP3fPZqAwDo79l0q94adW_HyOjB7-nrRAYOvwTUyeqFRS8vOdKrHCSJPG8SZfhLdc-vHeJumdnFx5994Ixp60SEHy4y7thJxUQPDfJvuywlxE8d4m3Z2dSEDF8EnCsvFYf_KKCP2Fhz5_6uMq9oW2VFny3ibPsJymfMf9Mv2BWKRe8oQu5YemVE7GgTL78cNMQ_6FKdY",
        "formattedAddress": "Suối Tọ, Phù Yên, Sơn La",
        "name": "Suối Tọ",
        "coordinate": {
            "latitude": 21.278805460000058,
            "longitude": 104.58016930300005
        },
        "compound": {
            "district": "Phù Yên",
            "commune": "Suối Tọ",
            "province": "Sơn La"
        }
    },
    {
        "placeId": "maBR2etWIqzJr-QDmhelQXfGtLvXxRWbpqZ8u3u6LUEGZ6wxl5sd-Y6rlPsKqkkxx3_oy_Zm9J0Dqn1SHqK5kXNnoB8CErkwl6usy2anaUEfe6T7inK9EX-nGPvGFhERh78YQ3oasUFnq-zb1nIRMWOjHPuOq2kRc6cY-xYWFUFjd6FHaqpJAZ-qfEOWdgyZn8vsy7p2uTEHqxj7XqIRAZN_lKuWZvHq-6pw2_Z9GTL7e6SrjndtUW-boMc4",
        "formattedAddress": "Suối Bu, Văn Chấn, Yên Bái",
        "name": "Suối Bu",
        "coordinate": {
            "latitude": 21.576767940000025,
            "longitude": 104.63608181400008
        },
        "compound": {
            "district": "Văn Chấn",
            "commune": "Suối Bu",
            "province": "Yên Bái"
        }
    },
    {
        "placeId": "okzNi3bJlZP99TqIZYmS5P7PBLCT_31y40kyjqbUVM3mUyLXpot-UdPlKYeU1kxf_c8tWKUHI3Tq6bOsov1YXvLbDOSQ1Vha5uc-1qXuXEvS5TKjkP1IU-XKMoiJ0kht48ocoIr5XFXm9zqIkO9AVOTLMtamyUhQ5coyiYVnWXFTR5F2epulMa-aTHI-R4ipr_vc-opHbQE3myjKIpOlMaNPpJrCV8XZK5pA6spPvQFrS5SbXkcLlV-pYPbI",
        "formattedAddress": "Suối Ba, Buôn Triết, Lắk, Đắk Lắk",
        "name": "Suối Ba",
        "coordinate": {
            "latitude": 12.396552384000074,
            "longitude": 108.01533712600008
        },
        "compound": {
            "district": "Lắk",
            "commune": "Buôn Triết",
            "province": "Đắk Lắk"
        }
    },
    {
        "placeId": "8LKyRCpAppPx2Enmt8B2e-nfJvmEp1hK_eBJ5Ym2ak7H3k3ihJxtcMbfMveGpmE46fM-7beaXT3wzzFITLedcPb9gZqEmls88vM-wbHCSFB_G8Sb6hLdcR_HeJumdnFx5994Ixp60SEHy4y7thJxUQPDfJvuywlxM8ekm3fFESJ3enUnCxYpYf_KHCP2Fmz5_6uMq9oW2VFny3ibPsJxYfMf9Mv2BpGJe8oQu5YemVE7G8TL7hVjDQ_7wKdY",
        "formattedAddress": "Suối Dĩ, Sơn Hội, Sơn Hòa, Phú Yên",
        "name": "Suối Dĩ",
        "coordinate": {
            "latitude": 13.195870853011694,
            "longitude": 109.02519092976648
        },
        "compound": {
            "district": "Sơn Hòa",
            "commune": "Sơn Hội",
            "province": "Phú Yên"
        }
    },
    {
        "placeId": "5o7uXO1UtuLlTQT7jqVu8eEsXcamtnJz7fPpkQSnVynW4xygkNB6a9fgWfOWt0hW4Msm8-HTWyr5lQPGl45uXu6WD46hi1cr4uM60aHSWE_W4TbqlKdMV-HONvmNRjExp584Y1o6kWFHi8z79lIxEtuDPNuuiUEzS4c42zY2NWFDV4FnSoppIb-KXGPmViy5v7fM6-pWmREnizjbfoIxIbNftIu2RSLRO4pQ-9ZdyRF7W4SLrldNcU-7ggzk",
        "formattedAddress": "Đồng Tháp, Việt Nam",
        "name": "Tỉnh Đồng Tháp",
        "coordinate": {
            "latitude": 10.46098887900007,
            "longitude": 105.63393014300004
        },
        "compound": {
            "district": "Cao Lãnh",
            "commune": "Phường 1",
            "province": "Đồng Tháp"
        }
    },
    {
        "placeId": "kljS_eVU_ibL7EnKi7hAXcv9PZKIq1BH5Z8m1L2rNzfN7Db6jM1AT-X-RduQq_197yjs604qQ_lX80h-Ru5JpNlTvAMyNzPpBRP8mzb3ORFPK_Sr2iLtQS_3SKuWNkFB1kdIEyvu4RE3-7yLhiJBYTPzTKve-zlBI_dIq0ZGRREzJ_EXOvoZUc_6LUfGJlzIE5kDv-om6qlX-cyrDvFiQcMvxPvGNqG5S_ogi6YuqWELK_T73ic9AT_L8Jdo",
        "formattedAddress": "Thành phố Phan Rang-Tháp Chàm, Ninh Thuận",
        "name": "Thành phố Phan Rang-Tháp Chàm",
        "coordinate": {
            "latitude": 11.567461621000064,
            "longitude": 108.99190045500006
        },
        "compound": {
            "district": "Phan Rang-Tháp Chàm",
            "commune": "Kinh Dinh",
            "province": "Ninh Thuận"
        }
    },
    {
        "placeId": "SA8qR0wQheXZ6S2Ekb1uU-ifIsdAvpog2J9cznnbV2rJu5SLDhL8n8XHlFMWq2EDy2cZV34SuVFve6un-nYRcX-s29YevhlyL6usyZKnaUNne6T7inK9EX-nGPvGFhERh78YQ3oasUFnq-zb1nIRMWOjHPuOq2kRc6cY-xYWFUFjd6L5FqlFA2uqfkmedg5ln8vsy7iaunUHqxlTXqIRAZN_lPuWZvHpG6pw2_Z--TFbe6SrjndtUW-boMc4",
        "formattedAddress": "Huyện Tháp Mười, Đồng Tháp",
        "name": "Huyện Tháp Mười",
        "coordinate": {
            "latitude": 10.525283106000074,
            "longitude": 105.84349303400006
        },
        "compound": {
            "district": "Tháp Mười",
            "commune": "Mỹ An",
            "province": "Đồng Tháp"
        }
    },
    {
        "placeId": "Tfbjx7fA8d_Az2RnthrdGOsbyDfactn9BWd8v27e56HNK7A3Es8BrS-vo4P2wtDZK8OgrnJyARWGS30grqZ1rf-naJ6eL_lZ-8_Irm7DDSV7H8Cf7hbZdRvDfJ-icnV149t8Jx5-1SUDz4i_shZ1VQfHeJ_qzw11F8N8n3JycSUHE8UjDs4tZfvOGCfyEmj9-61wr94S3VeLzWCfOsZ1Zfcb8M_yApWNf84Uv5IanVU_H8DP6hMJNQv_xKNc",
        "formattedAddress": "Landmark 72 - Keangnam Hanoi Landmark Tower, E6 Phạm Hùng, Mễ Trì, Nam Từ Liêm, Hà Nội",
        "name": "Tháp H",
        "coordinate": {
            "latitude": 21.016578956000046,
            "longitude": 105.78390497800007
        },
        "compound": {
            "district": "Nam Từ Liêm",
            "commune": "Mễ Trì",
            "province": "Hà Nội"
        }
    },
    {
        "placeId": "WO_179np2a1T_vbCmYN9djHED4KYu3n2bsY59K2FX-jtmKCnfrdxybejAC8Ct3UdU9sQmgK64KH_h4gzGqadTVe_QB_mbqVNRnuw13u3dV0Cu7jnlm6hDWO7BOUeCg_Zm6MEXQ4GrV17t_DHym4NLX-_AOeSt3UNb7ow5wUKCV4LawlbdX5VHYO2YF7ma4iFg9fw1hJqpS0btwTnQr4NHY9jiLeKeu31B7Zsx-pi5S1HZ7i3kmtxTXOHuNsk",
        "formattedAddress": "Tháp A, HC Golden City, Hồng Tiến, Bồ Đề, Long Biên, Hà Nội",
        "name": "Tháp A",
        "coordinate": {
            "latitude": 21.038779653000063,
            "longitude": 105.87657194500008
        },
        "compound": {
            "district": "Long Biên",
            "commune": "Bồ Đề",
            "province": "Hà Nội"
        }
    },
    {
        "placeId": "nL7x7plTTMDf-F3en6xU6FTp34acSUS_KcAyi6m_IyPZ6SL4mNlUYe3DLYOp21xj5cAU5Z2EQF_vRQCErrxUx-tWAP6avUch6usy2fHaUEep6T7i3q9EX-nGPvGFhERh78YQ3oasUFnq-zb1nIRMWOjHPuOq2kRc6cY-xYWFUFjd6FHaqpJAZ-qfEOWJdgyZn8vsy7p2uTEHqxj7XmYRAZN_lKuWovHpG6pw2_Z--TFbe6SrjnelUW-bbMc4",
        "formattedAddress": "Khu di tích K20, K20, Khuê Mỹ, Ngũ Hành Sơn, Đà Nẵng",
        "name": "Khu di tích K20",
        "coordinate": {
            "latitude": 16.023395274000052,
            "longitude": 108.24741212500004
        },
        "compound": {
            "district": "Ngũ Hành Sơn",
            "commune": "Khuê Mỹ",
            "province": "Đà Nẵng"
        }
    },
    {
        "placeId": "x1ymatvak_Lp4T3zibjXRunyGN-HwUROweAM5oa3SH3r_TbCgMBEPcbxOimy2fE5xoE2wWW0hV_AWBuch7WER8ZIDPaBuEhh8vMqwbHCSF_G8Sb6hLdcR_HeJumdnFx5994Ixp60SEHy4y7thJxUQPDfJBvuywlxE8d4m3Z2dSEBd8EnCsopYxX-HCP2Fmz5_6uMq9oW2VFny3ibPsJxYfMf9Mv2BpGJe8oQu5YemVE7G8TL7hUxMQ_7ww9Y",
        "formattedAddress": "Khu di tích lịch sử 27/7, Hùng Sơn, Đại Từ, Thái Nguyên",
        "name": "Khu Di tích 27-7",
        "coordinate": {
            "latitude": 21.629478302000052,
            "longitude": 105.63203512700005
        },
        "compound": {
            "district": "Đại Từ",
            "commune": "Hùng Sơn",
            "province": "Thái Nguyên"
        }
    },
    {
        "placeId": "-ZCzoedNvdTUzSCPo6JJVufNGcKjsCIv_8wr_JePSXPDy1jkk71ZUOOSXdqVTddQ5cwGzKQ7WmXV2g3jlLJdRJTkI0jTo3DzlOY_Z6TXXUrTU5DPvkaJJUuTLM_yIhkls4ssdiYvTXVTn9jv4kYlBVeXKM-6n10lR5MszyIiIXVXQ5VzX5J9NauenHeiSjitq__Y_45CjQUznyzPapYlNadLoJ-iUsXdL55E78JKzQVvT5CfukNZZVuvlPMM",
        "formattedAddress": "Khu Di tích An Phụ, An Sinh, Kinh Môn, Hải Dương",
        "name": "Khu Di tích An Phụ",
        "coordinate": {
            "latitude": 21.013561542000048,
            "longitude": 106.49367539400004
        },
        "compound": {
            "district": "Kinh Môn",
            "commune": "An Sinh",
            "province": "Hải Dương"
        }
    },
    {
        "placeId": "A_Lr4-HGlufX4SmOl41IbtfP-YyUiydPLsjhj6fTWEHt4V37SNCiWu3yCMsnt1Qu0ZElxPGlL1r7pjbLkdJmXvqDPpeQjXRpA4v060aHSWE_W4TbqlKdMV03ONvmNjEzhac4Y1o6kWFHi8z5clIxEUODP_Tai0kxU4c42zY2NWFDV4FnSoppIb-KXGO2Viy5v-vM65pWmREnizjbfoIxIbNftIu2RtHJO4pQ-9Ze2RF7W4SK2letcU-7gOdM",
        "formattedAddress": "Khu di tích Xuân An, Xuân An, Yên Lập, Phú Thọ",
        "name": "Khu di tích Xuân An",
        "coordinate": {
            "latitude": 21.42181060000007,
            "longitude": 104.98403100000007
        },
        "compound": {
            "district": "Yên Lập",
            "commune": "Xuân An",
            "province": "Phú Thọ"
        }
    },
    {
        "placeId": "j-fRj8_TbMjJ7kvIibpCX__JP5CKqVJF_9Yk7r-pNTXP_zT4js9BfM7ROEK8zDl_yPzZOIiSWlf-0B52T55BrNLntAp34zkZD_P0kzr_MRlHI_yj0irlSSf_QKOeTklJ3-dAGyJC6Rk_87SDjipJaTv7RKKi89VJK_9AozJOTRk7L_kfMvIRWcfyJBvOLlTBx5O0k-Iu4Wlf80CjBvpJWcsnzPPOPqlZQU4og64moWvxA_zz1i81CTfD-J9g",
        "formattedAddress": "Khu Di tích Phủ Dầy, Kim Thái, Vụ Bản, Nam Định",
        "name": "Khu Di tích Phủ Giầy",
        "coordinate": {
            "latitude": 20.361174018000042,
            "longitude": 106.07769137200006
        },
        "compound": {
            "district": "Vụ Bản",
            "commune": "Kim Thái",
            "province": "Nam Định"
        }
    },
    {
        "placeId": "4l1NFalZtqXG4B7XsKVecOjzRPaFp2s89Nk3x4OAbDvG3xnkpp1NR-jykj-zw1078YfD4rG3RTr_4ifhgKQ6fOiFDdyAtmA98_IrwLCnw17H8Cf7hUnwRvBdJ-icnd949ugJx5-1SUDf8y_shZ1VQfHeJ_qzw11F8N8n3JycSUHE8UjDs4tZfvOGCfAyEmj9-6-Ir94S3VVjz3yfOsVxZncb8M_yAfWNf84Uv5IanVU_H8DP6hMJNQv_xKNc",
        "formattedAddress": "Bình Định, Việt Nam",
        "name": "Tỉnh Bình Định",
        "coordinate": {
            "latitude": 13.768814339000073,
            "longitude": 109.22801780200007
        },
        "compound": {
            "district": "Quy Nhơn",
            "commune": "Lê Hồng Phong",
            "province": "Bình Định"
        }
    },
    {
        "placeId": "POtGMJ7b-CDz-QLknr9sVOToV8OqvHxH8eoFhIeBXlDa1Szdhr1GWuvqiR6cvVJc7ELH5YSt6yfHkIR7anoBwWdvnFryrxVpr6OkwkJvYVkXr3FLgq608XevEPPOHhkZj7cQS3ISuUlvo-TT3noZOWurF8-Go2EZePMTrx4eHUlrf6lPYqJBCZeidEuefgSRl8Pkw7J-sTkPoxDzVqoZCZt3nKOebvnhE6J40_528TlTc6yjhn9lWWeTqM8w",
        "formattedAddress": "Thành phố Nam Định, Nam Định",
        "name": "Thành phố Nam Định",
        "coordinate": {
            "latitude": 20.428259672000024,
            "longitude": 106.17305566000005
        },
        "compound": {
            "district": "Nam Định",
            "commune": "Bà Triệu",
            "province": "Nam Định"
        }
    },
    {
        "placeId": "OE6b9FL2Wpv0gQremJ1sRfiDP5uMmmRm7N4sm4SdXl_HoDDmtOte73eMAp20W0HG78kS27fBOXns5kP_mLJOOsHmT8mAnfdX9HAsx7fE9VnA9yD8SrFaQffYgu8gmlp_8dgOwJiyTkf05SjrgppSRvbZIP20xFpC99gg25ubTkaV9kD_DtIxeecSBDvuDnTh57OUs8IOwUl_02CDJtppeesH7NPuHoodY9IIo42SggUjA9zT9g8VKRfj2L9A",
        "formattedAddress": "Nam Định, Việt Nam",
        "name": "Tỉnh Nam Định",
        "coordinate": {
            "latitude": 20.434630711000068,
            "longitude": 106.17770025100003
        },
        "compound": {
            "district": "Nam Định",
            "commune": "Vị Hoàng",
            "province": "Nam Định"
        }
    },
    {
        "placeId": "PyuAQkmfgJb23XUBK557-_eAWJ-bs0oa9vd13pibQWTFg-zlhcVzOwn17J6Zo1k57ID07ZugXXzwAeTcgaI6hPuDFZllxEGY9_YvxLTHTVrD9CP_gbJZQvTbI-yYmVl88tsNw5uxTUT35ivogZlRRfXaI_63x1lB9Nsj2JiYTUXA9UzHt49deveCDfhdnoB67-Yv8zuzUVz32yPKtZldecL4N_iEoWdb94ErE4IKjUUvD9Df-gMZJRvv1LNM",
        "formattedAddress": "Quận Ba Đình, Hà Nội",
        "name": "Quận Ba Đình",
        "coordinate": {
            "latitude": 21.03398199000003,
            "longitude": 105.81452464100005
        },
        "compound": {
            "district": "Ba Đình",
            "commune": "Liễu Giai",
            "province": "Hà Nội"
        }
    },
    {
        "placeId": "QPxq5pGKyVjliUmXhqs6NfnvHPuLpGZxyv0Y1aqGSGX70yLtkKpu5eXxd-CMhlgczf1AkYnMV33l1DrviZFQdc39Nuq7kkh8_v8mzb3ORFPK_Sr2iLtQS_3SKuWRkFB1-9IEypK4RE3-7yLhiJBYTPzTKveNzlBIVNIq0b6R_UxE_EXOvoZUc5-LBP6Jl1Ey8e8m-om6c1X-0irDvJBUcMvxPvGNqG5S_ogi6YuqWELK_T73ic9A7T_L8Jdo",
        "formattedAddress": "Huyện Đình Lập, Lạng Sơn",
        "name": "Huyện Đình Lập",
        "coordinate": {
            "latitude": 21.54915367700005,
            "longitude": 107.09284705500005
        },
        "compound": {
            "district": "Đình Lập",
            "commune": "Đình Lập",
            "province": "Lạng Sơn"
        }
    },
    {
        "placeId": "-ZlaheOkt9v3hRbmgrZrcPXNPOCc4UZl8p8s6oTcWlP_93CTYhLUoTPT0Sp-HtEdl28Q4nPu2Vl7x8CyzhJlWTejbLN2CmXhi6_M45YekXknx2yTkhZhWX8eFLOCEPJl56No4N7BWOeTHzShmh8B4WfDcTtufpFpS8PEk_YeZVmvF2yjYsrpCWfTjEvqHw15B8uEk6rO2Ql_whDzni7dZcg",
        "formattedAddress": "Vườn Quốc Gia Ba Vì, Vân Hoà, Ba Vì, Hà Nội",
        "name": "Vườn Quốc Gia Ba Vì",
        "coordinate": {
            "latitude": 21.0898469,
            "longitude": 105.3907614
        },
        "compound": {
            "district": "",
            "commune": "",
            "province": ""
        }
    },
    {
        "placeId": "9vfcYl32gOPwghHhhZlJPvmDL-eHnm-b9d0J7UifRYP7gz_zO5-0_sPlNzlgs13RsYI__LTDUVmx9yvkg55RSu_cK9qFnn9l8_Q_4oCjWU7s3CPjgp9RWMCCKzCDnlHn790_EfrewPmHmwC_cgMd_XsrbSdyYo11V9y_2-oCeUWzCIy_ftb1FXvPkFf2AxFlG9eYj7bSxRVj3gzvgjLBedQ",
        "formattedAddress": "8J85+MFX, Nho Quan, Ninh Bình 432857",
        "name": "Vườn Quốc Gia Cúc Phương",
        "coordinate": {
            "latitude": 20.3167448,
            "longitude": 105.6087306
        },
        "compound": {
            "district": "",
            "commune": "",
            "province": ""
        }
    },
    {
        "placeId": "9odhxvSmhmPwWy39hpjbRPF9HJmdtUxz8PEH2J6dR28LDhQ_jg6V1OfOGD5ufw18_6oYH6_KZW17qnS3a4qQ8ev2FE5-ewkdz8fApwrLBS1zF8iX5h7RfRILdJeryn196nt0LxZ23S0Lx4C3uh59XQ_PcJfixwV9HkN0l8p6eS0Pe80rBsYlbfPGEC_6GmD186eAp9Ya1V1rx3SXMs59Pf8T-W_6CpzFd8Yct5oSlV03F8jH4hsBPQP3zKtU",
        "formattedAddress": "Vườn Quốc gia Ba Vì, Ba Vì, Ba Vì, Hà Nội",
        "name": "Ba Vi National Park",
        "coordinate": {
            "latitude": 21.076694100000054,
            "longitude": 105.37032900000008
        },
        "compound": {
            "district": "Ba Vì",
            "commune": "Ba Vì",
            "province": "Hà Nội"
        }
    },
    {
        "placeId": "_pIgz0lN70n81hbiibhJNcn9QvmTuXBO59AC1LidRXz-4wK2vMtkdcjzGdeOzHhW-9E0VrmEzH_z7gL_j6pTaM5hWR4mIuV40_P0kz7_MRo_I_yj0UblSiv_QKOeTklJ3-dAGyJC6Rk_87SDjipJaTv7RKPW8zFJK_9Ao05OTRk7L_kfMvIRWcfyJBvOLlTBx5O0k-Iu4Wlf80CjBvpJWcsnzPPOPqmxQ_Iog64moWqjI5zz1i0BCzf_wJ9g",
        "formattedAddress": "Vườn Quốc gia Ba Bể, Nam Mẫu, Ba Bể, Bắc Kạn",
        "name": "Vườn Quốc gia Ba Bể",
        "coordinate": {
            "latitude": 22.397907230000044,
            "longitude": 105.61429914400009
        },
        "compound": {
            "district": "Ba Bể",
            "commune": "Nam Mẫu",
            "province": "Bắc Kạn"
        }
    },
    {
        "placeId": "J4Xo8PekP5-A2Qo7_Kc_w4HOM3-fmjrYxt4_eIbBSZ7y8Sxwh6dGmfzsDVOHqWub9N4ZYojDSZrx8ig_hZ1FnRny6nyfn0nA85Ir8vDDSfvHsCdGXrZd6PDfJ3icnV3H9t8JQJ-1Sezz4i9BhZ1V-vHeJ0Wzw13c8N8nQZycScPE8Uh-s4tZ_APOGCX6Emln36-IrWIS3Vc7z3yd9sZ1Z_Mb8M1-ApWPk84UvT4anVfrH8DNChMJN103x_1w",
        "formattedAddress": "Vườn Quốc gia Pù Mát, Châu Khê, Con Cuông, Nghệ An",
        "name": "Vườn Quốc gia Pù Mát",
        "coordinate": {
            "latitude": 19.078666204000058,
            "longitude": 104.74535345200007
        },
        "compound": {
            "district": "Con Cuông",
            "commune": "Châu Khê",
            "province": "Nghệ An"
        }
    },
    {
        "placeId": "E1ye1EPF2Yba6i6Hkr5tUOucIcSZvXoj25xfzYbYVGnt5iHAh7wkcvG9NeWp6UNL2ttW3IetV1jd6TX9nodfXOj2DISsmoVn6egx2qpfU-rdRD3hn6xH6urF8vKGh0diPcXs3YWvU1rp-DX2n4dPW-vEPeCpRkfZ6sU9xoZfU1ve61LZqZFDZOmcE-aegCVk8fgxiJ6tT0LpxT3tq4dDGZ9zmKeaav3lF6Z81_le9T1Xd6pzgKdhXWOXrMs0",
        "formattedAddress": "Huyện Thạch Thất, Hà Nội",
        "name": "Huyện Thạch Thất",
        "coordinate": {
            "latitude": 21.056068625000023,
            "longitude": 105.57803238500009
        },
        "compound": {
            "district": "Thạch Thất",
            "commune": "Liên Quan",
            "province": "Hà Nội"
        }
    },
    {
        "placeId": "8d2vWuE9Jazt1C2Bq0YkvvHoC4Orakd97vYLwIXZX1Dswi6EqdsgavLqKYOpV31i65_awpoIUyDl-UPinKMfXPGfT8Ge2Sx76ukxmtrZU0To6Gj2qn6xHXOrFPfKGh0eI7MUTYoWvU93p-DX2n4dPW-vEveCpPUdf6sXZxoaGU1ve61LZqZFDZPKcE-aegCVk6fgx7Z6tT0LpxT3Uq4dDZ9zmKeaav3lF6Z81_py9T1Xd6ingnthXWOXrMs0",
        "formattedAddress": "Huyện Thạch Hà, Hà Tĩnh",
        "name": "Huyện Thạch Hà",
        "coordinate": {
            "latitude": 18.366558265000037,
            "longitude": 105.86097604600008
        },
        "compound": {
            "district": "Thạch Hà",
            "commune": "Thạch Hà",
            "province": "Hà Tĩnh"
        }
    },
    {
        "placeId": "1pFRJpA6IuLS9QDWiY5XWOaSLI6l1kgu5_kYj6aOTF7i2yLbkrBARUn1OsKm1VDpdOlM8aShInXqkUz0paJYS-flLYmljyNT5uc-1aXWXEvS5TLukKNIU-XKMv2JiEht48qy0oocXFXm96D5kP1AVIjLMu-m5EhQ5coyyYmJXFTR5F3W5Z5Ma-amHOmTjypr_vc-4pGiQE3myjLbpIhMaNOVJunpsHZK5pWHOpOyQFrS5fHvkddVYV-rkPcI",
        "formattedAddress": "Huyện Thạch An, Cao Bằng",
        "name": "Huyện Thạch An",
        "coordinate": {
            "latitude": 22.43161582500005,
            "longitude": 106.42833384600004
        },
        "compound": {
            "district": "Thạch An",
            "commune": "Đông Khê",
            "province": "Cao Bằng"
        }
    },
    {
        "placeId": "-52u5T5AXFPt-QzzVK1mJOnxhuFVvnp76uUM5qivXyHe6xTlmNhyY9jDDPuev0VA6MMu-53bXiLxnwvOhoZmVuaeB4apg18j6uuZ2TLaUEfe6aninK9EX-nGPvGFhERh78YQ3oasUFnq-zb1nIRMvujHPuOqWETa6cY-xYWFUFjd6FGLqpJAZ-qfENqdgyZn8vsy7p2uTEHqxj7XqIRAZN_lKuWZvHpG6pw2_em-JTFbenyrj6dtUW-boMc4",
        "formattedAddress": "Huyện Lập Thạch, Vĩnh Phúc",
        "name": "Huyện Lập Thạch",
        "coordinate": {
            "latitude": 21.41540113600007,
            "longitude": 105.46035914800007
        },
        "compound": {
            "district": "Lập Thạch",
            "commune": "Lập Thạch",
            "province": "Vĩnh Phúc"
        }
    },
    {
        "placeId": "MJKkOJLm50fR5y-I54tOaNGRKIrJjSFL584FiaHVXknrsFv9pPQhdv_WEtCQsVIo1_cjwqCjKVz954Uwl9RgWPyRzfuWi3xG5OU816fUXknQ5zDskqFKUefIMP-Likpv4cge0IiiXlfk9Tj7WopCVk7Jku0w1OZSSsgwy4uLXlbT5l_UpJxOaeSRHuuTjShp_PX_4JOgQk88yOTTZpopOatGXJOvrsnRI5Jc485GwQljQ5yTtk9VaVejmP8A",
        "formattedAddress": "Huyện Thạch Thành, Thanh Hóa",
        "name": "Huyện Thạch Thành",
        "coordinate": {
            "latitude": 20.12662787000005,
            "longitude": 105.66689238800006
        },
        "compound": {
            "district": "Thạch Thành",
            "commune": "Kim Tân",
            "province": "Thanh Hóa"
        }
    },
    {
        "placeId": "1ihayNDgklrlySTRiLJORrBOCYqk4c51jSEo0IihKUTQyFvKoLJ8aNDIHcKQ_04ts84SwIvmUufXLDjhp9Va5__NIOugsU5J5OU816fUXknQ5zDskqFKUefIMJf_ikpv4cgTei4iiXlfk9Tj7kopCVuaFMMmk1EpS5-0wy4uLXlbT5l_UpJxOaeSRHuuTjShp_PU84JOgQk_kyDDZpopOatHrJOuXsnRI5JI485GwS1jQ50Ltk9UkVejmP8A",
        "formattedAddress": "Vườn Hồ, Tiền Yên, Hoài Đức, Hà Nội",
        "name": "Vườn Hồ",
        "coordinate": {
            "latitude": 21.025235301476656,
            "longitude": 105.68206419102779
        },
        "compound": {
            "district": "Hoài Đức",
            "commune": "Tiền Yên",
            "province": "Hà Nội"
        }
    },
    {
        "placeId": "Vp9a8POw4d3yzST0n8FGPPL_OO6AmXxCxNkS_bS0ZGbChjeYpIRFPvTgNF-qw2Dk9OJPeZ-mXX3E4Djps4hKXZHZJOucw3xFx_Eow7PASl3E8yT4hrVeRfPcJOufnl579SsKxJy260PcSizvh9p7wQvLdJPmDwF5G87Ak39yfSkLH8kvAsIhaffCFCv-HmTx96OEo9Ie0Vlvw3CTNsp5afsX_MP-DpmBc8IYs54WkVkzE8zD5h8FOQfzyTtQ",
        "formattedAddress": "Vườn Ve, Đại Hóa, Tân Yên, Bắc Giang",
        "name": "Vườn Ve",
        "coordinate": {
            "latitude": 21.42468029400004,
            "longitude": 106.05917556000009
        },
        "compound": {
            "district": "Tân Yên",
            "commune": "Đại Hóa",
            "province": "Bắc Giang"
        }
    },
    {
        "placeId": "lUwiTs81-VPN4kHx4b7QWb77NZf2vX509o0mx4iVQJvhji5QlK9VYs_qROuI3yOV3_eoi1YKUZXni0wTev8ltrs_WENCWMzet-vsiybnKQFfO-S7yjL9UT_nWLuGVlFRx_9YAzpa8QEn66ybljJRcSPjXLvO6ylRM-dYu1ZWVQEjN-EHKuoJQd1CPAPWNk_p3Nusi_o2-XFGJ1i7H-pRQdLj1OvWJrGpW-owm7Y-uXEbO-TrzjctES_b4Id4",
        "formattedAddress": "Mã Vườn, Quế Nham, Tân Yên, Bắc Giang",
        "name": "Mã Vườn",
        "coordinate": {
            "latitude": 21.320710392000024,
            "longitude": 106.15944487200005
        },
        "compound": {
            "district": "Tân Yên",
            "commune": "Quế Nham",
            "province": "Bắc Giang"
        }
    },
    {
        "placeId": "Jv1tkvlPknb87APkhrtAM8jvC5OIhUtWzv01l4mRZTLJiEPZk6owMcnvA_G9V8-p-NclnI1eZUfl_CrWvZQ0dMjRQ5OSqDV9_fwlzr7NR1DJ_in1i7hTUv7RKeaSk1NI-NEHyZG7R0797CHii5NbT__QKfS9zVNL_tEp0pKSR0_K_0bNvYVXcP2IB47ylDFw5ewlioq5W1b90SnAv5NDc_7IV_KOqz1R8osh6oipW0HJ_ub04isxDTD3_8dk",
        "formattedAddress": "Gò Vườn, Sơn Linh, Sơn Hà, Quảng Ngãi",
        "name": "Gò Vườn",
        "coordinate": {
            "latitude": 15.047840912000026,
            "longitude": 108.57053612900006
        },
        "compound": {
            "district": "Sơn Hà",
            "commune": "Sơn Linh",
            "province": "Quảng Ngãi"
        }
    },
    {
        "placeId": "xPviSVXxs6fA2TSbt7ZdQvPZDda3pDY769g_14ObXWfw30zth6lJO_LaGdqdpllE8dgS2LCpknHBzhlOgKb3UMfwN-eAt2Rz8_Ir8LDDSV7HwCfwhbZdRvDfJ-icnV149k3fx5-1SUDzCS_sWZ2FQfHeAJ_pVw11F6EIn3JzfSUHwnEjDs4tZfvOGCfyEmj9-6-Ir94S3VVjz3yfOsZ1Zfcb8M_yApYBf84Uv5GOnhk_H8DP6hFxNwv_xKNc",
        "formattedAddress": "Vườn Cò, Hưng Thành, Vĩnh Lợi, Bạc Liêu",
        "name": "Vườn Cò",
        "coordinate": {
            "latitude": 9.355053600000076,
            "longitude": 105.83842701600008
        },
        "compound": {
            "district": "Vĩnh Lợi",
            "commune": "Hưng Thành",
            "province": "Bạc Liêu"
        }
    },
    {
        "placeId": "qK7qx13ke5_w-CTOkKFzX97rAcZE6F2e2L8V_1fYmGTy-S_bUdmZYujrUPqFv3wg35wvw52tRUbZwgKFnqxRXt9V6u_woVF4mBUz2OvbUUbf6D_jna5FXujHP_CEhUVg7scR34etUVjr-jf0nYVNWenGPI-Kr20Vd6Mc_xISEUVnc6VDbq5NBZuueEeScgidm84oz-pyvTUDr7z_WqYVBZd7kK-SYvUFH6503_J6_TVff6CvinNpVWufpMM8",
        "formattedAddress": "Huyện Đầm Dơi, Cà Mau",
        "name": "Huyện Đầm Dơi",
        "coordinate": {
            "latitude": 8.988963124000065,
            "longitude": 105.19701893500007
        },
        "compound": {
            "district": "Đầm Dơi",
            "commune": "Đầm Dơi",
            "province": "Cà Mau"
        }
    },
    {
        "placeId": "qkwU_ju0alTl7SLRipBUZebXHJGLqG59-79Uq576WTEv-izrMvs9mVP6KFMu-zo1H5dc1k1TyvWzy8UDVuqtARvzDH-qIukBC_v8mzb3ORFPK_Sr2iLtQS_3SKuWRkFB1-9IEypK4RP3-TSLhiJBY7_zTKve-zlBI_dIq0ZGRUUSf_EXJvoZMc86LBPGJlzJz5u8m-om6WFX-0irDvJBUcMvxPvGNqG5S_ogi6YuqWELK_T73ieVAT8_8Jdo",
        "formattedAddress": "Trường cao đẳng Kinh tế Đối ngoại (cơ sở A), 287 Phan Đình Phùng, Phường 15, Phú Nhuận, Hồ Chí Minh",
        "name": "Trường cao đẳng Kinh tế Đối ngoại (cơ sở A)",
        "coordinate": {
            "latitude": 10.797499344000073,
            "longitude": 106.68086544000005
        },
        "compound": {
            "district": "Phú Nhuận",
            "commune": "Phường 15",
            "province": "Hồ Chí Minh"
        }
    },
    {
        "placeId": "XsCR_8fyZLDo2RmfhrZkUKTcNN-Hx0o5we80-5zzTlr0tCiagodGWv_ZONiepGF89PMo_7OfNWPF8zTEi7U9Qej_EsCcpzlH8PEow7PASl3E8yT4hrXrRV7cJOufnvN79dwKxJy2SkPw4SzvX55WhvLdJPlCwF5Gg9wk3_OfSkKf8ktOsIhaffCFwAqHmT9x96OEo9Ie0Vlvw3CTNsp5afsX_MP-DpmBc8IYs54WkVkzE8zD5h8FOQfzyK9Q",
        "formattedAddress": "A Dơi, Hướng Hóa, Quảng Trị",
        "name": "A Dơi",
        "coordinate": {
            "latitude": 16.47786487700006,
            "longitude": 106.73723850800008
        },
        "compound": {
            "district": "Hướng Hóa",
            "commune": "A Dơi",
            "province": "Quảng Trị"
        }
    },
    {
        "placeId": "DXdJok1vSYL25gnujLFKOcLlAZmCj0FcxFg_nYObb_fDOEnTmaCEecT1AeU6oKNU8t0v3IeZmEXv9l2Yt5Y-9MJ-EIJ6YmT_b9_YvxLTHTVrD9CP_gbJZQvTb7OyYmVl8I9vyw5uxTUT35ivogZlRRfXaI_63x1lB9Nsj2JiYTUXA9UzHt49deveCDfiAnjt67-Yv84CzUVz32yPKtZldecL4N_iEoWdb94Er4IKjUUvD9Df-gMZJRvv1LNM",
        "formattedAddress": "đội 4, Pờ Tó, Ia Pa, Gia Lai",
        "name": "đội 4",
        "coordinate": {
            "latitude": 13.613623976000042,
            "longitude": 108.41010501400007
        },
        "compound": {
            "district": "Ia Pa",
            "commune": "Pờ Tó",
            "province": "Gia Lai"
        }
    },
    {
        "placeId": "INhZtMROIP3v5zvRj75sQMH0HtmBx6BIx-YKh-BCsXvt-zCAhsZCfcbJIMGaoGM_wIMw3IKyWlnG3R2agbNOQcD1CvCHvk5K9PVex7fEZyzA9078grFaQff3IO-bmlp_8dgOwJiyTkf05ShblZpS6_bZ74JGxFpCINj325ubTkbD9k_EtIxeefSBDvuDnTh57OUs8IOwUl_02CDJtppeesH7NPuHomRY9IIo44GgUkjA9zT9g8VDKRfj2L9A",
        "formattedAddress": "Thanh Hóa, Việt Nam",
        "name": "Tỉnh Thanh Hóa",
        "coordinate": {
            "latitude": 19.807651660000033,
            "longitude": 105.77560381500007
        },
        "compound": {
            "district": "Thanh Hóa",
            "commune": "Lam Sơn",
            "province": "Thanh Hóa"
        }
    },
    {
        "placeId": "hMWehjrxwvjF4hfBnplAO_GFOZmywV9G8O4PmLGZW0n1zDXMhVunUv7jLeWxV0dj9ZA1_rO2W2L95oJPNbVPXPDy47KymDRE8fApwrLBS1zF8iX5h7RfRPLdJfKen1969OoL3Z23S0Lx4C3uh59XQ_Pc8JfixwV9H8t0l3p6eS0PG80rBsYlbfPGEC_6GmD18peAp9YbpV1q13SXMs59bf8T-Mf7qp2FdgoctXvGlV-bF8jFNhsBPQP3zKtU",
        "formattedAddress": "Hải Phòng, Việt Nam",
        "name": "Thành phố Hải Phòng",
        "coordinate": {
            "latitude": 20.86455200000006,
            "longitude": 106.68580800000007
        },
        "compound": {
            "district": "Hồng Bàng",
            "commune": "Minh Khai",
            "province": "Hải Phòng"
        }
    },
    {
        "placeId": "4d5Ax-oi9Wbr6lHXmrxEvvPpJtqpVV-g2ItVn53aRCLv5TLYhL9ASOj6Vc-YJ2EUn7cMI8JywXXjyngzxn4JbaM7qLumZklxm6usy2anaUEfe6T7inK9EX-nGPumFhERh7_EQQIasxlnq-zZQnIRMWOjHPuOq2kRc6cY-xYWFVFjd6FDaqpJRZ-qfEOWdgyZn8vsy7p2uTEHqxj7XqIRAZJnlKuXfvHpGmZw2_Z--TFbe6SrjndtUW-boMc4",
        "formattedAddress": "Hồ Chí Minh, Việt Nam",
        "name": "Thành phố Hồ Chí Minh",
        "coordinate": {
            "latitude": 10.776553100000058,
            "longitude": 106.70105355500004
        },
        "compound": {
            "district": "Quận 1",
            "commune": "Bến Nghé",
            "province": "Hồ Chí Minh"
        }
    },
    {
        "placeId": "R-gx3SzphmXxwAB9n6_GSd7FLVOe2OIg6_YtV4Wtg0PtnjFfm9GlG4uXrV3Kb2pp97epequaG3Xrc6i0kkqzZWL3qCyCF8dpevuYxU6rZ4UTd6j1Hn6zyXPLFPeqGh91i7MUTU4Wv9lrp-DVPn4fgW-vEPUep2cZf6sU9U4aG2Vve61JDqZHmZOmcEyWegO1k8fgxT56t1ELpxT1Dq4fmZ9zmKXmav_5FiJ816Zy94FVP6ilXntjNWOXrMkM",
        "formattedAddress": "Chợ Đệm, Nguyễn Hữu Trí, Tân Túc, Bình Chánh, Hồ Chí Minh",
        "name": "Chợ Đệm",
        "coordinate": {
            "latitude": 10.692612330000031,
            "longitude": 106.57806179300007
        },
        "compound": {
            "district": "Bình Chánh",
            "commune": "Tân Túc",
            "province": "Hồ Chí Minh"
        }
    },
    {
        "placeId": "4qWYCjSB4e34zG004_NRKuWj7xbLjnhu-_D5LI_QTi_4_85Pk7UtFvuXcSSgmFZX0pSIKKSIXm_v_9Uek7clWeJK0jiWpPB24GyTo9PQWk3U4-g0lqVOVePM-xqPjk5r5czUPIymWlP78f80lo5GUuDN6TSg0E5W48zPW4-PWlLX4tAaoJhPKtOCV7ziXbSyJ-PHkNJekRkvgzN0goo5KbtXv7zyTtnBM4Jb3IJW0RlzU4-k7l9FeUezixF4",
        "formattedAddress": "Cầu Chợ Đệm, Tân Túc, Bình Chánh, Hồ Chí Minh",
        "name": "Cầu Chợ Đệm",
        "coordinate": {
            "latitude": 10.694283880052126,
            "longitude": 106.57997240886873
        },
        "compound": {
            "district": "Bình Chánh",
            "commune": "Tân Túc",
            "province": "Hồ Chí Minh"
        }
    },
    {
        "placeId": "uUyctZhFgfvYwxnwrYMB3UPfDJ-urqiMh28UkyZupVmLc_jtAl7hZ7PbBBVqd3Srt7vw3wJqBWSPqxTOBrY5ZJvftUaqcgFV57-433KzfVULb7DvnmapBWuzDO_SAgUFk6sMV24OpVVzv_jPwmYFJXe3CO-av30FZ7MM7wICAVV3Y7VTfr5dFYu-aFeCYhiNi9_4365i7SUTvwzvSrfRFYavgL-Cc2n9D75kz-DS7SVPb7C_mUd5RXuPtmss",
        "formattedAddress": "Cầu Chợ Đệm, Tân Nhựt, Bình Chánh, Hồ Chí Minh",
        "name": "Cầu Chợ Đệm",
        "coordinate": {
            "latitude": 10.691301877000008,
            "longitude": 106.56853268249769
        },
        "compound": {
            "district": "Bình Chánh",
            "commune": "Tân Nhựt",
            "province": "Hồ Chí Minh"
        }
    },
    {
        "placeId": "wYre8oeFJoTphUWbiqc2OfXjEPeHqGp9xvEU2YqcRGn33y7hhvFiWOmmKdmmslRBmxthMnfDAW3Hp8DbjhZ1ceZPxOsG3nkRw5vMqwV3CSLHG8Sb6X7dcR_HeJumdnFx5994Ixp60SEHy4y7thJxUQPBM3_uywlxE8SYm3Z2dSEDFgUnC8IpYf_KyCP2Fmz5_6uNY9oW2Klny3lTPsJxYfMf9Mv2BpGJe8oQu5YemVE7G8TL7hcNMQ_7wKdY",
        "formattedAddress": "Sông Chợ Đệm, Tân Kiên, Bình Chánh, Hồ Chí Minh",
        "name": "Sông Chợ Đệm",
        "coordinate": {
            "latitude": 10.694636109000044,
            "longitude": 106.58019898400005
        },
        "compound": {
            "district": "Bình Chánh",
            "commune": "Tân Kiên",
            "province": "Hồ Chí Minh"
        }
    },
    {
        "placeId": "Wu23gYAtT_ry5hPsmbJ5O_n1Sv6xoWX2ZOQT-bewQD7BlAv0h8dqPMf6H-SHxV9B99wx5ILETD3ugBTRmZl5SfmBoZm2GEA89fScxrbFT1jB9iH9g7BbQPbZIe6am19-8NkPwZmzW0b15Cnqg5tTR_fYIfyC1xVtD9tkh2pqaT0fC907FtY1fePb1D_qCnDl4gOQt8UuxU1712YLIIZtfe8D6NfqGo2VZ9YMp4oahU0nB9jX8gsRL7kT3LtE",
        "formattedAddress": "Chợ đêm Cần Thơ, Hai Bà Trưng, Tân An, Ninh Kiều, Cần Thơ",
        "name": "Chợ đêm Tây Đô",
        "coordinate": {
            "latitude": 10.031500666000056,
            "longitude": 105.78787933600006
        },
        "compound": {
            "district": "Ninh Kiều",
            "commune": "Tân An",
            "province": "Cần Thơ"
        }
    },
    {
        "placeId": "Wn_wUuB08dzo2w7inKU1U8PbNN-Gp0pJ_9wO3bSlaH7ohSudgsA46zuEGt2ww6Trw_Id1pxOt5H0gzti_8FO8_RaLOO1mJy18GQow7PASl3E8yT4hrVeRfPcJOufnl57Ttz1xJy2SkMK4Szvhp5WQvLdJPmwwF5G89wk35-fSkLH8kvAsIhaffCFCv-HmTx96F8o9Ie0VuHwWyTNsp5afsX_MP-DpmBc8IYs54WkVkzE98zD5h8FOQfzyK9Q",
        "formattedAddress": "Làng Hóa, Tô Mậu, Lục Yên, Yên Bái",
        "name": "Làng Hóa",
        "coordinate": {
            "latitude": 22.15408517800006,
            "longitude": 104.63338566700008
        },
        "compound": {
            "district": "Lục Yên",
            "commune": "Tô Mậu",
            "province": "Yên Bái"
        }
    },
    {
        "placeId": "RFPR9T5s4SfWSATSjYrxKOKWKoqh0khV4_0ci6KK-VpM3ybflrTmQRfrtA8Si0VRw5u0m9aClSHHulSbwoaZNXOPhKVyhi09X4uONOqHSWE_W4TbqlKdMV-HONvmNjExp586R1hikWFHi8479lIxEUODPNuui0kxU4c42zY2NWFDV4FnSoppIb-KXGO2Viy5v-vM65pWmRLbizjbfoElIjNftIoORtHJO4pQ-7Ze2RF7W4SLrldNcU-7gOcY",
        "formattedAddress": "Làng Hoa, Hữu Sản, Bắc Quang, Hà Giang",
        "name": "Làng Hoa",
        "coordinate": {
            "latitude": 22.406347783000058,
            "longitude": 105.06405789600007
        },
        "compound": {
            "district": "Bắc Quang",
            "commune": "Hữu Sản",
            "province": "Hà Giang"
        }
    },
    {
        "placeId": "y5_n6D-yUDvS9VnTkrMkRNLkSYuRoT9e_M0u9aSyLy7U5FnjldQjVuP1IteJsiNk0-dBypOJBkzly3CIoosZL1n2lNXj1ZRYXeZd1KTXM0rT5EnvkaIzUuTLSfyIiR1s4stI04uhVF3n9kH4kYkzVeXKSe6n1zNR5MtdyIjkXFXQiE2Gp-UdaueSK9eQjj9q__xB45CjM0z2503apYknadLod-iUsTtL55FB8JKzJU1vT5FnukNY8VuvlTcM",
        "formattedAddress": "Làng Hoá, Tân Sơn, Lục Ngạn, Bắc Giang",
        "name": "Làng Hoá",
        "coordinate": {
            "latitude": 21.565115958000035,
            "longitude": 106.63805213500007
        },
        "compound": {
            "district": "Lục Ngạn",
            "commune": "Tân Sơn",
            "province": "Bắc Giang"
        }
    },
    {
        "placeId": "nkwUXghm45zB7R_Znul-fKbiOuOd8GFx99gq9oGoV3LG8BjtgIpMTenzNuiAwVRY9vIM2Ya3N3H14vGdip2mOfMt8eGdbbh98vMqwbHCSF_G8Sb6hLdcR_BHegekmnFx591idxp5d3rTySC7thEFUQPDfJvuywlxE8d4m3Z2dSEDF8EnCsopYf_KHCP2Fmz5_6uMq9oW2VFny3ibPsJxYk8f9MnyBpGL98oQu5YemVE7G8TL7hcNMQ_7wKdY",
        "formattedAddress": "Làng Họa, Cấm Sơn, Lục Ngạn, Bắc Giang",
        "name": "Làng Họa",
        "coordinate": {
            "latitude": 21.589825405000056,
            "longitude": 106.57454214400008
        },
        "compound": {
            "district": "Lục Ngạn",
            "commune": "Cấm Sơn",
            "province": "Bắc Giang"
        }
    },
    {
        "placeId": "bMvn8NPT5NPSTVDTkqH1RNJZJIuRskle_M0_9aSyLi7U5C_jldRZKLNZ6NOT0yJksuQjypOJQUzlKwaIootwL-P2GdWU1V1YSOY_1KTXXedK5DPvkaJJ_FLLM_yIiUnk4ssd04uhXVTn9jv4kYlBVeXKM-6n10lR5MszyIiIUXVXQ5VzXp59NaueSHeiQjitq__Y_45CjQUznyzPapYlNadLoJ4aUsXdLlJE76OezQVuS5CfukNZZVuvlPMM",
        "formattedAddress": "Làng Hoa, Lam Sơn, Ngọc Lặc, Thanh Hóa",
        "name": "Làng Hoa",
        "coordinate": {
            "latitude": 20.03382491900004,
            "longitude": 105.45370857800003
        },
        "compound": {
            "district": "Ngọc Lặc",
            "commune": "Lam Sơn",
            "province": "Thanh Hóa"
        }
    },
    {
        "placeId": "eaJE4u3GKUj5lVWLmreXJuXzAOeXuHr5beEEyZqMVNbnzz7xlrZyWvmWANWWtER20chcjZXQS2H54CbzlY1MadHhKvanjlRg4uM60aHSWE_W4TbqlKdMV-HONvmNjExpg84Y546kXFHW81j9lIw-UODPNuui0kxU4c42zeGNWFDVRjVmR0ppIb-KXGOCViy5v-vM65pWmREnizjbfoIxIbNftIu1NtHKR4pQ-9U62RF7W4SK2letcU-7gOdM",
        "formattedAddress": "Khu vui chơi 1/6, Điện Biên Phủ, Phong Thổ, Phong Thổ, Lai Châu",
        "name": "Khu vui chơi 1/6",
        "coordinate": {
            "latitude": 22.543577843000037,
            "longitude": 103.29077064000006
        },
        "compound": {
            "district": "Phong Thổ",
            "commune": "Phong Thổ",
            "province": "Lai Châu"
        }
    },
    {
        "placeId": "995aom-wh7Lw5k_4DrKbdPf1HtyDnEk_9eZL0bCjQnbw9A2btMVRdMDfEuaGxEJm-IMe75iaeDzl3RLAgJxOYvHdHp6EoGBl9PUsx7fETlnA9yD8grFaQffYIO-bW1qa8dgOwJh_Tkf05SjrgppKRvbZUv20xCBC9D9gg25ubTkbD9l7EtIxPefSBXvuDoDh57OUs8IOdUl_02CDJtpVeesH7NJqH-2RY9IIo44GgUkjA9zT9g8VKRfj2L9A",
        "formattedAddress": "Khu vui chơi Game, 922 Tỉnh Lộ 10, Tân Tạo, Bình Tân, Hồ Chí Minh",
        "name": "Khu vui chơi Game",
        "coordinate": {
            "latitude": 10.756785985000022,
            "longitude": 106.60558433800009
        },
        "compound": {
            "district": "Bình Tân",
            "commune": "Tân Tạo",
            "province": "Hồ Chí Minh"
        }
    },
    {
        "placeId": "XmrV1_7M5kjSTw_Bia_MZud1JY2ev0At6ZMHj4mLfmfRklKxi4Rp5tdHPeilsF_P_eYD_Iq_Slvn9xvYpqB3LOWQIeqSjH1Q5eQ91qbVX0jR5jHtk6BLUObJMf6Ki0tu4Mkf0YmjX1bl9Dn6k1tDV-SfIi-ylMUtT5smWyoqKX1cx59LVpZ1PaOWQH-qSjClo_fQ94ZKhQ07lyTHYp4tPa9DqJeqWs3VJ5ZM58pCxQ1nR5iXsktRbVOnnPsE",
        "formattedAddress": "Khu vui chơi Baby, 100 Hiền Vương, Phú Thạnh, Tân Phú, Hồ Chí Minh",
        "name": "Khu vui chơi Baby",
        "coordinate": {
            "latitude": 10.781318588000033,
            "longitude": 106.62691422000006
        },
        "compound": {
            "district": "Tân Phú",
            "commune": "Phú Thạnh",
            "province": "Hồ Chí Minh"
        }
    },
    {
        "placeId": "6F3oXLWFflXG4B7XsKVecOjzRPaFp2s89Nk3x4OmbDvG3xnknAalNcfLjGfezw1078YcV4rG3RTr_4ifhgKQ6fOiFDdyAtmA98_IrwLDDSV7H8CdNhbZdRvDf-yecgF149t8Jx52fSUDz4i_shZ3wQfFVJ_qzw95F8N8n3JycSUHE8UjDs4tZWfOGCfyEmpI_6-IrfoS391jz3yfOsZ1ZfcanM_yA_GNf86Uv5IanVU_H8DP6hMJNQv_xKNc",
        "formattedAddress": "Khu vui chơi Mỹ Yến, 61 Quang Trung, Hóc Môn, Hóc Môn, Hồ Chí Minh",
        "name": "Khu vui chơi Mỹ Yến",
        "coordinate": {
            "latitude": 10.887985079000032,
            "longitude": 106.59981484800005
        },
        "compound": {
            "district": "Hóc Môn",
            "commune": "Hóc Môn",
            "province": "Hồ Chí Minh"
        }
    },
    {
        "placeId": "9EfuQyG1W_T03yn5gpx5QFqCGJ2ZsZT1d_UDSJqZ3GbHgCQvnh8dxevDeE-ubols77oID75mdX37y5ineg6A4Z_kuF5uaxkN3gfWGxi3FT1jB9rb9g7BbQPbZIe6am1t-8NkPwZmzT0b15CnqoYNfR_fYIfybxVP29kMh2pqaT9nC907FtY1fePWAD_qCnDl47eQt8YKxU1712SHIt5tfe8D6NfqGo2VZ9YMp4oChU0nB9jX8gsRLREv3-dE",
        "formattedAddress": "Khu vui chơi Mỹ Yến, 62/20 Quang Trung, Hóc Môn, Hóc Môn, Hồ Chí Minh",
        "name": "Khu vui chơi Mỹ Yến",
        "coordinate": {
            "latitude": 10.888012220000064,
            "longitude": 106.59950711700009
        },
        "compound": {
            "district": "Hóc Môn",
            "commune": "Hóc Môn",
            "province": "Hồ Chí Minh"
        }
    }
]