[
    {
        "placeId": "mlTd8bJYpvPp2CrmtumaO7DbEO2F8VRjxds2453Bakfw4C7YnKc3cfHeKtuGpEhKXeEU27a3SMY62T7AWJ2Af_3fPvR2pFxO8vMqwbHCSF_G8Sb6hLdcR_HeJumdnFx5994Ixp60SEHy4y7tgZxUQPDfJkyEwlxE8d77Jp2dSEDF8EnCsopYf_KHCP2Fm9Z_6j4q9oW241ny3ibPsJxYfMf9Mv2BpGJe8oQu5YemVE7G8TL7hBcNMQ_6TKfA",
        "formattedAddress": "Hà Nội, Việt Nam",
        "name": "Thành phố Hà Nội",
        "coordinate": {
            "latitude": 21.02819540300004,
            "longitude": 105.85415977800005
        },
        "compound": {
            "district": "Hoàn Kiếm",
            "commune": "Lý Thái Tổ",
            "province": "Hà Nội"
        }
    },
    {
        "placeId": "wXhC818kw5vocCzbntnrm9x4L4afhvh-70Yg-5qH90rsZCz6mtvqXPN7N4ao2-ki81Ik962A1SfqXryHnivnauxBrYCogOkm6FIw26vY60XcRjzgnq3EXetGPPOHhsRj7VIS3Eeu-YToTjT3W4bFWupGPOGo2MRe61I8x4eHVlrfU-rYqJCdZegkEuefgflHliU4w8J-sxEPsQjzVqobrZt3nKOebvp5E6E40_52861TcVijhn9nqWeRCM8w",
        "formattedAddress": "Quận Hà Đông, Hà Nội",
        "name": "Quận Hà Đông",
        "coordinate": {
            "latitude": 20.971334803000047,
            "longitude": 105.77875462800006
        },
        "compound": {
            "district": "Hà Đông",
            "commune": "Nguyễn Trãi",
            "province": "Hà Nội"
        }
    },
    {
        "placeId": "hMWehjrxwvjF4hfBnplAO_GFOZmywV9G8O4PmLGZW0n1zDXMhVunUv7jLeWxV0dj9ZA1_rO2W2L95oJPNbVPXPDy47KymDRE8fApwrLBS1zF8iX5h7RfRPLdJfKen1969OoL3Z23S0Lx4C3uh59XQ_Pc8JfixwV9H8t0l3p6eS0PG80rBsYlbfPGEC_6GmD18peAp9YbpV1q13SXMs59bf8T-Mf7qp2FdgoctXvGlV-bF8jFNhsBPQP3zKtU",
        "formattedAddress": "Hải Phòng, Việt Nam",
        "name": "Thành phố Hải Phòng",
        "coordinate": {
            "latitude": 20.86455200000006,
            "longitude": 106.68580800000007
        },
        "compound": {
            "district": "Hồng Bàng",
            "commune": "Minh Khai",
            "province": "Hải Phòng"
        }
    },
    {
        "placeId": "7e-rFJrEtBT1mVmHlkS7Jen_DOubKnZh2u0IxZ2AWHXrwzL9lrp-Z_W6Msec7Uh63ZZQgZncR2317Cr_UIFAZd31mfNomglhs7e423a3eVEPa7TrmmKtAW-3CjzqBgEBl68L12oKoVF3u_zLxmIBIXOzDOueu3kBY7cI6wYGBVFzZ7EHerpZEVe6bY-GZhyJj9v826pmqSEXuwjrTrIBEYNvhLuGduH5C7pgy-Zu6SFLa7S7nmd9QX-LsNco",
        "formattedAddress": "Thành phố Biên Hòa, Đồng Nai",
        "name": "Thành phố Biên Hòa",
        "coordinate": {
            "latitude": 10.949426604000053,
            "longitude": 106.81907867400008
        },
        "compound": {
            "district": "Biên Hòa",
            "commune": "Thanh Bình",
            "province": "Đồng Nai"
        }
    },
    {
        "placeId": "INhZtMROIP3v5zvRj75sQMH0HtmBx6BIx-YKh-BCsXvt-zCAhsZCfcbJIMGaoGM_wIMw3IKyWlnG3R2agbNOQcD1CvCHvk5K9PVex7fEZyzA9078grFaQff3IO-bmlp_8dgOwJiyTkf05ShblZpS6_bZ74JGxFpCINj325ubTkbD9k_EtIxeefSBDvuDnTh57OUs8IOwUl_02CDJtppeesH7NPuHomRY9IIo44GgUkjA9zT9g8VDKRfj2L9A",
        "formattedAddress": "Thanh Hóa, Việt Nam",
        "name": "Tỉnh Thanh Hóa",
        "coordinate": {
            "latitude": 19.807651660000033,
            "longitude": 105.77560381500007
        },
        "compound": {
            "district": "Thanh Hóa",
            "commune": "Lam Sơn",
            "province": "Thanh Hóa"
        }
    },
    {
        "placeId": "L5jsgysy9cLk3ezjs59dPvTeFej0n1FmwIAz5t7Eo0L15Svdlm-idPJJ2pnjoU1PwxER3rOyTT_23DvFhZhzevjaO_G1oVlL9_YvxLTHTVrD9CP_gbJZQvETbI-yYmVl88tsNw5uxTURd5ivogZn3RVHaI_63x1lB9Nsj2JiYTUXA9UzHt49deveCDfiAnjt67-Yv84CzUVxY2yPKtZld93n4hPg3oWdb94GE4IKjUUvD9Df-gMZJRvv1LNM",
        "formattedAddress": "Hòa Bình, Việt Nam",
        "name": "Tỉnh Hòa Bình",
        "coordinate": {
            "latitude": 20.814596433000077,
            "longitude": 105.33420128900008
        },
        "compound": {
            "district": "Hòa Bình",
            "commune": "Phương Lâm",
            "province": "Hòa Bình"
        }
    },
    {
        "placeId": "viKc5VPlvevbniH9nNlla-3oA_OqrCR93Z5W3J-_X2roxDXmh79bXub76tmp8m0lvVb5hJLbIEry5gDPhoV5Zu7ED8KbgZpE6egx2nHZqkGTd6j3hn6xHXOrFPfKGh0di7MUT3YWvU1pG-DX2n4dP6VvEPeCp2Udf6sU9xoaGU1veV-vZqZFDZOlSE-aegCVk8fgx7Z6tT0LpxT3Uq4dDZ9zmKeaaQ79F6Z81_px5T1WI6indnthXWODrMs0",
        "formattedAddress": "Thành phố Dĩ An, Bình Dương",
        "name": "Thành phố Dĩ An",
        "coordinate": {
            "latitude": 10.90429113700003,
            "longitude": 106.76875891200007
        },
        "compound": {
            "district": "Dĩ An",
            "commune": "Dĩ An",
            "province": "Bình Dương"
        }
    },
    {
        "placeId": "CCZQnc_x8oXH8Tmeh51YfsffPpyEmzdf8dgTn7fDSFH94k3rssA3YOnzJpiGp0Q-weE11La1P0rr8SbbgcJ2TOqHTu2AnWou8vMqwBbHCSF-m8Sb6hMZcR7fe6emdnFx5Jt73xp60SEHy4_HthJxUQPAu3_uTwlxE8d4mst2dSEDF8EnCXYpYsvKHCP1_mz5_6uMqgfa2VFny3iaFsJxYfFj9Mv2BpMdeYoQu5YemVE7G8TL7hcNMQ_7wKdY",
        "formattedAddress": "Thành phố Bắc Ninh, Bắc Ninh",
        "name": "Thành phố Bắc Ninh",
        "coordinate": {
            "latitude": 21.188102128000025,
            "longitude": 106.07231003800007
        },
        "compound": {
            "district": "Bắc Ninh",
            "commune": "Suối Hoa",
            "province": "Bắc Ninh"
        }
    },
    {
        "placeId": "1U_bUZH--YfVzSKildd-z9LlIYiViHZw4Uwu9ZSJ9kTiSCL0lP1qUtXMXfim1XUs_Vjn-aOOXCnkKiWJkKPlZOJQKo6mjuko5uc-1aXWXEvS5TLukKNIU-XKMv2JiEht48oc0oqgXFXm9zr5kIhAVOTLMu-m1khQ5coyyYmJXFTR5F3Wpp5Ma7KTHOmRSSrmj_c-4pFrQE3myjLbpIhMaNPpVJumVsHZK5pA68ZOyQFrS5SbvkddYV-rkPcI",
        "formattedAddress": "Hải Dương, Việt Nam",
        "name": "Tỉnh Hải Dương",
        "coordinate": {
            "latitude": 20.94086065700003,
            "longitude": 106.33373666100005
        },
        "compound": {
            "district": "Hải Dương",
            "commune": "Quang Trung",
            "province": "Hải Dương"
        }
    },
    {
        "placeId": "mEBDq_XiJ4Hb_QPKrbhDbfXuWeuYunYh6cQq2p67cSbbwgT5gLRQWvWYEN6u3kAm7JoI_6yqRCed_zr84o9YYZ2YENLmdwX1Q7u8g3a3e7TbaVDrmmKvtW-3COvWBgEBl68IU2vWoVF2C_zLx7oBIXOzDOudB3kCu7cI6wViBVFzZ7FXerpZEY-6bFOGZhyJj9v826pmqSEXuwjrTrIBEYNvhLuGduH5C7pgy-Zu6SFK67S7nmdpQX9_sNco",
        "formattedAddress": "Bình Dương, Việt Nam",
        "name": "Tỉnh Bình Dương",
        "coordinate": {
            "latitude": 10.980356129000029,
            "longitude": 106.65170149700003
        },
        "compound": {
            "district": "Thủ Dầu Một",
            "commune": "Phú Cường",
            "province": "Bình Dương"
        }
    },
    {
        "placeId": "cq3_dJZOrf3L1SHOj5FDMOGOPZG9kVNv-tAbzIy0RV1v9-jXyja5Xb-LqPUeXrmZ5_uv6TpaRbXTN_PnLj7NDa87QPty6kHVN-fghyrrJQ1TN-i3xirxX4kzVLeKPl1f6_NUDzZW_Q0r56CXmj5dfS_vULfC5yVdP-tUt1paWQ0vO-0LJuYFTmPmMA1aOkDV04egh9o69X1L51S3Eu5dTd8z2OfaKU69V-Y8l7oxpX0XN-jnwjshHSPX7It0",
        "formattedAddress": "Thành phố Hải Dương, Hải Dương",
        "name": "Thành phố Hải Dương",
        "coordinate": {
            "latitude": 20.937833401000034,
            "longitude": 106.33084933500004
        },
        "compound": {
            "district": "Hải Dương",
            "commune": "Trần Phú",
            "province": "Hải Dương"
        }
    },
    {
        "placeId": "RZmAraMxRrTTb_AnfgIdeJe-bJ4es3_RYQfARhq-H7lfr0ivSm7lJTOD-AoJF3K996-Ar-FmoRXzjmCv9nKtRQu7sJICshipa7-433KzfVULb7DvnmapBWuzDO_SAgUFk6sMV24OpVVzv_jPwmYFJXe3CO-avUUFZ7MPfwIA7VV3Y7VTfr5dFYu-aFeCYhiNi9_43646rSUTvwzuY0oFFYdrsL-CcuX9D7-Az-Jq7u1Pb7EDmmEneL-PtXss",
        "formattedAddress": "Huyện An Dương, Hải Phòng",
        "name": "Huyện An Dương",
        "coordinate": {
            "latitude": 20.86421579900008,
            "longitude": 106.61369597600009
        },
        "compound": {
            "district": "An Dương",
            "commune": "An Dương",
            "province": "Hải Phòng"
        }
    },
    {
        "placeId": "VZA7_DPr56PV2ijDSIgqkej1HolTj1FW6_YN_aKPVW7jkCP3i6FRVuXkWdOkj3dK5eYZyqWjWWvSyy_QiNdRc032Do-Sj_8pSeaU1D_XXUrT5KSGkaJJUuTLM--IiUls4ssd04uhXVTn9jv4kYlBVeXKM-6n10n8UcszyIiIXeTQ5VzXp59NaueSHeiQjitq__Y_45CjQUznyzPapYUlNadLoJ-iUsXdL55E78JKzQVuz5CfukNNZVtblPMM",
        "formattedAddress": "Dương Kinh, Hải Phòng",
        "name": "Dương Kinh",
        "coordinate": {
            "latitude": 20.7733918,
            "longitude": 106.7213703
        },
        "compound": {
            "district": "Dương Kinh",
            "commune": "Hòa Nghĩa",
            "province": "Hải Phòng"
        }
    },
    {
        "placeId": "zSr9kFRCTKjLQOzKi7hAXct7JPZKIq1BH5dQm7L2rNzfN_Tb6jM1AT-X_OuCQqzt9yv4604qQWFX80h-Ru5JpNvrvAOWNzERBzP8m_r3ORFPK_Sr2iLtQS_3SKuWRkFB1-9IEypKfRE3-7_24iOFYTPwi0_e-zlCN_dIq0UiRRJHJ_EXOvoZUc_6LBPGJlzJz5u8m-om6WFX-0irDvFFUkMvxPvGNcG6q_ogi6YtSWKrK_T73ic9AT_L8Jdo",
        "formattedAddress": "Thành phố Thái Nguyên, Thái Nguyên",
        "name": "Thành phố Thái Nguyên",
        "coordinate": {
            "latitude": 21.59332366500007,
            "longitude": 105.83837512700006
        },
        "compound": {
            "district": "Thái Nguyên",
            "commune": "Phan Đình Phùng",
            "province": "Thái Nguyên"
        }
    },
    {
        "placeId": "JkJbKEqDm_fz_wrcg4RdUuyY2ISv3EIk7fONEqyEn1To0YXRRrqYT_fANPis31p-6OMo-66rRn_gmyi4r_5SQe3vJ6ivhSlZ7O0036_cVkHY7zjkmqlCWe_AOPeDgkJn6cAWQ4CqVtjs_TBfmoLvXu5KOOWs3MFa78A4w4ODVl7b7lfcrJRGYeyZFuNGhZth9P006CCoSkfswDjRroJGYtnjLOOfunxA7Jow-5Lm4SlDY7yzlm91SXeDuN8g",
        "formattedAddress": "Thái Nguyên, Việt Nam",
        "name": "Tỉnh Thái Nguyên",
        "coordinate": {
            "latitude": 21.594912286000067,
            "longitude": 105.84075148900007
        },
        "compound": {
            "district": "Thái Nguyên",
            "commune": "Trưng Vương",
            "province": "Thái Nguyên"
        }
    },
    {
        "placeId": "XFlBkVH9kOR87UjLirlBysr8PJOJqlFG5NUn7byqQTbM_Db7jcw3UOTwFtSRnvxOyzo7VYvSqlT90x7_upNoN_vuAc2MzUVA__4nzLzPRVL6L_Cv3ibqMSvzTK-RRkZB0-tMFy5O5RUz_7iPgiZFZTf3SK_a_z1FJ_Ksr0JDTRU3IkETPv4dVcv-KBfCIljNy5-4n-4i7WVT_0yvCvZFVccrwP_CMqW9T_4kj6IqrWUPL_D_2iM5BTvP9JNs",
        "formattedAddress": "Huyện Thủy Nguyên, Hải Phòng",
        "name": "Huyện Thủy Nguyên",
        "coordinate": {
            "latitude": 20.917138502000057,
            "longitude": 106.67504794200005
        },
        "compound": {
            "district": "Thủy Nguyên",
            "commune": "Núi Đèo",
            "province": "Hải Phòng"
        }
    },
    {
        "placeId": "RczPz9ON9KfR3izHTIwulezxGo1Xi1VS7_IJ-aaLUWrnlCfzj6VVUvjPAouhpXNO4ZQ_zqGnXW_WzyvUjNNVd_vyCouWi00t4-I70KDTWU7X4DfrlbdNVuCCN8-Mpk1o5vgZ14-l-FQBZ8j_8lY3jUeFdzuCj001V4Oo3kDeMWVHU4ViMo5tJbuOWGeyUii9u-_I755SnRUjjzzfeoY1JbdbsI0mQtexP45U_c5a3RV_X4CPqlNJdUu_hOMc",
        "formattedAddress": "Thủy Nguyên, Hải Phòng",
        "name": "Thủy Nguyên",
        "coordinate": {
            "latitude": 20.9451331,
            "longitude": 106.6715543
        },
        "compound": {
            "district": "Thủy Nguyên",
            "commune": "Kênh Giang",
            "province": "Hải Phòng"
        }
    },
    {
        "placeId": "KbmMgmHQx63h7zXrlYFIbdj-OcSfhUck2O1TxqmrnlnYwfbjV4GaYwfB3u5CqVep7f4L0E6EWyLewTFHmoTdJO7vWmaCqVtV7ew13q7dVK0DZ7jnlU6hDWO7Bm_Y5g0Nm6MEX2YGrV17t_DHym4NLX-_AOeSt3UNb7sE5woKCV1_a71bdrZVHYO2YF-KahCFg9fw16ZqpS0btwTnQr4NHY9jiLeKeu31B7Zsx-pi5S1HZ7i3kmtxTXOHvNsk",
        "formattedAddress": "Tp. Thái Nguyên, Thái Nguyên",
        "name": "Tp. Thái Nguyên",
        "coordinate": {
            "latitude": 21.5671559,
            "longitude": 105.8252038
        },
        "compound": {
            "district": "Thái Nguyên",
            "commune": "Tân Thịnh",
            "province": "Thái Nguyên"
        }
    },
    {
        "placeId": "eJuZ3_zs6yno0SiErrsh90btDoauqW_0QvMOxYDcWlXpxyuBrI0lb_ftEt6s3nhn7p8Nx1KqViXgn5rn76ZDSrgaIMSa9Fl-3O0036_cVkHY7zjkmqlCWe_AOPeDgkJn6cAW2ICqVl_s_TDzmoJKXu7BOOWs3EJa78A4w4ODVl7b7lfcrJRGYeyZFuObhSBh9P006JuoSkfswDjRroJGLYtnjLOOfunxA7Jow-5m4SlDY7yzlm91SXeDuN8g",
        "formattedAddress": "Cần Thơ, Việt Nam",
        "name": "Thành phố Cần Thơ",
        "coordinate": {
            "latitude": 10.036532057000045,
            "longitude": 105.78778410900009
        },
        "compound": {
            "district": "Ninh Kiều",
            "commune": "Tân An",
            "province": "Cần Thơ"
        }
    },
    {
        "placeId": "kshT7clhH0nXki3xkNVpZ-HkD_-moFtx0ZIo0JOzWmbkyDnqi7OxUur3OcylV9cp_vUuiJ6yLEbp6gzDiol1auLIA86XjX1I5eQ9hKbVX0jR5jSHWk6BLUObJMf6Ki0tu4Mkf0YmjX1bl5jn6k4tDV-f0Meyl1UtT5skxyoqKX1fS50_VpZ1eaOWQT-r-jClokpY94fShQ07l_THYp4tPStDqJeqWs3Vr5ZM58pCxQ1nR5iXsktRbVOnnPsE",
        "formattedAddress": "Quận Cầu Giấy, Hà Nội",
        "name": "Quận Cầu Giấy",
        "coordinate": {
            "latitude": 21.031028545000026,
            "longitude": 105.80112181800007
        },
        "compound": {
            "district": "Cầu Giấy",
            "commune": "Quan Hoa",
            "province": "Hà Nội"
        }
    },
    {
        "placeId": "jeex8uBb1OblkuWElf5bXD31E4yK6nFM_ZBSzZCMS2jp9V6NpZ1fUkrqIZbPsXUt9pEti57WQynX2C30k41TUbHYKdKJ4VAv1eQ91qbVX0jR5jHtk6BLUObJMf6Ki0tu4Mkf0YmjX1bl9Dn6k4tDV-fIMeyl1UtT5skxyoqKX1fS517VpZ1PaOWQH-qSjClo_fQ94ZKhQ07lyTHSYp4tPa9DqJeqWs3VJ5ZM58pBPsVnR5iXskkNbVOnnPsE",
        "formattedAddress": "Thành phố Cà Mau, Cà Mau",
        "name": "Thành phố Cà Mau",
        "coordinate": {
            "latitude": 9.182571622000069,
            "longitude": 105.15051145700005
        },
        "compound": {
            "district": "Cà Mau",
            "commune": "Phường 4",
            "province": "Cà Mau"
        }
    },
    {
        "placeId": "IO9TVbyLvnzP0kPzjrxXTvT5N5WXv1t29I8kxYqXQlLjjCznlq1gTPjRMNOKylF1_-gg14CWZ3vg0QbcvctvMc3UEtKUrzWZ-PkgN6y7QsvM-yzwyL1WTfvULOOXUpZz_dQCzJRWQkv46STnjpZeSvrVLPG4yF1ZO-9Qs15eXQkrP-kPIuIBSdfiN4_ePkTRGAul1_I-8XuD41CzFupZSds33OPuLrmhU-Pckjo2sXkTM-zjxj8lGSfT6I9w",
        "formattedAddress": "Thành phố Lào Cai, Lào Cai",
        "name": "Thành phố Lào Cai",
        "coordinate": {
            "latitude": 22.501957705000052,
            "longitude": 103.96455723900004
        },
        "compound": {
            "district": "Lào Cai",
            "commune": "Duyên Hải",
            "province": "Lào Cai"
        }
    },
    {
        "placeId": "zYdt_crC9Vo6ki7qoqJDZOTkOc2R1ite_uky052zI3fV9SLxiLFcKuqTUEym1Ypa_ZAYdoigTFj-kSrDo9VQWeKQAPmloy4u5uc-1aXWXEvS5TLukKNIU-WVMv3KiEht44nl0oqgXFXmHPf5kIhAVOTLMu-m1khQ5coyyYmJXFTR5F3VWpp5Ma-aTHOmRjypr_vc-4pGiQE3myjLbpIhMaNPpJumVsHZJ5pA68ZOyQErS5Sayke9YV-rkPdc",
        "formattedAddress": "Thành phố Cao Bằng, Cao Bằng",
        "name": "Thành phố Cao Bằng",
        "coordinate": {
            "latitude": 22.662178664000066,
            "longitude": 106.26166393200003
        },
        "compound": {
            "district": "Cao Bằng",
            "commune": "Sông Bằng",
            "province": "Cao Bằng"
        }
    },
    {
        "placeId": "E1ye1EPF2Yba6i6Hkr5tUOucIcSZvXoj25xfzYbYVGnt5iHAh7wkcvG9NeWp6UNL2ttW3IetV1jd6TX9nodfXOj2DISsmoVn6egx2qpfU-rdRD3hn6xH6urF8vKGh0diPcXs3YWvU1rp-DX2n4dPW-vEPeCpRkfZ6sU9xoZfU1ve61LZqZFDZOmcE-aegCVk8fgxiJ6tT0LpxT3tq4dDGZ9zmKeaav3lF6Z81_le9T1Xd6pzgKdhXWOXrMs0",
        "formattedAddress": "Huyện Thạch Thất, Hà Nội",
        "name": "Huyện Thạch Thất",
        "coordinate": {
            "latitude": 21.056068625000023,
            "longitude": 105.57803238500009
        },
        "compound": {
            "district": "Thạch Thất",
            "commune": "Liên Quan",
            "province": "Hà Nội"
        }
    },
    {
        "placeId": "8d2vWuE9Jazt1C2Bq0YkvvHoC4Orakd97vYLwIXZX1Dswi6EqdsgavLqKYOpV31i65_awpoIUyDl-UPinKMfXPGfT8Ge2Sx76ukxmtrZU0To6Gj2qn6xHXOrFPfKGh0eI7MUTYoWvU93p-DX2n4dPW-vEveCpPUdf6sXZxoaGU1ve61LZqZFDZPKcE-aegCVk6fgx7Z6tT0LpxT3Uq4dDZ9zmKeaav3lF6Z81_py9T1Xd6ingnthXWOXrMs0",
        "formattedAddress": "Huyện Thạch Hà, Hà Tĩnh",
        "name": "Huyện Thạch Hà",
        "coordinate": {
            "latitude": 18.366558265000037,
            "longitude": 105.86097604600008
        },
        "compound": {
            "district": "Thạch Hà",
            "commune": "Thạch Hà",
            "province": "Hà Tĩnh"
        }
    },
    {
        "placeId": "1pFRJpA6IuLS9QDWiY5XWOaSLI6l1kgu5_kYj6aOTF7i2yLbkrBARUn1OsKm1VDpdOlM8aShInXqkUz0paJYS-flLYmljyNT5uc-1aXWXEvS5TLukKNIU-XKMv2JiEht48qy0oocXFXm96D5kP1AVIjLMu-m5EhQ5coyyYmJXFTR5F3W5Z5Ma-amHOmTjypr_vc-4pGiQE3myjLbpIhMaNOVJunpsHZK5pWHOpOyQFrS5fHvkddVYV-rkPcI",
        "formattedAddress": "Huyện Thạch An, Cao Bằng",
        "name": "Huyện Thạch An",
        "coordinate": {
            "latitude": 22.43161582500005,
            "longitude": 106.42833384600004
        },
        "compound": {
            "district": "Thạch An",
            "commune": "Đông Khê",
            "province": "Cao Bằng"
        }
    },
    {
        "placeId": "-52u5T5AXFPt-QzzVK1mJOnxhuFVvnp76uUM5qivXyHe6xTlmNhyY9jDDPuev0VA6MMu-53bXiLxnwvOhoZmVuaeB4apg18j6uuZ2TLaUEfe6aninK9EX-nGPvGFhERh78YQ3oasUFnq-zb1nIRMvujHPuOqWETa6cY-xYWFUFjd6FGLqpJAZ-qfENqdgyZn8vsy7p2uTEHqxj7XqIRAZN_lKuWZvHpG6pw2_em-JTFbenyrj6dtUW-boMc4",
        "formattedAddress": "Huyện Lập Thạch, Vĩnh Phúc",
        "name": "Huyện Lập Thạch",
        "coordinate": {
            "latitude": 21.41540113600007,
            "longitude": 105.46035914800007
        },
        "compound": {
            "district": "Lập Thạch",
            "commune": "Lập Thạch",
            "province": "Vĩnh Phúc"
        }
    },
    {
        "placeId": "MJKkOJLm50fR5y-I54tOaNGRKIrJjSFL584FiaHVXknrsFv9pPQhdv_WEtCQsVIo1_cjwqCjKVz954Uwl9RgWPyRzfuWi3xG5OU816fUXknQ5zDskqFKUefIMP-Likpv4cge0IiiXlfk9Tj7WopCVk7Jku0w1OZSSsgwy4uLXlbT5l_UpJxOaeSRHuuTjShp_PX_4JOgQk88yOTTZpopOatGXJOvrsnRI5Jc485GwQljQ5yTtk9VaVejmP8A",
        "formattedAddress": "Huyện Thạch Thành, Thanh Hóa",
        "name": "Huyện Thạch Thành",
        "coordinate": {
            "latitude": 20.12662787000005,
            "longitude": 105.66689238800006
        },
        "compound": {
            "district": "Thạch Thành",
            "commune": "Kim Tân",
            "province": "Thanh Hóa"
        }
    },
    {
        "placeId": "4OyO0DSOleTh8R75SqabLtXyFo5dmFZL0-AoipSMeC_UlV7EPXrctbvvhjvokt1pD5co4y5CPeFL44TePoIkpafvMXo6PtShg1eE406PQWk3U4zTolrROVePMNPuPpU5r5cwa1IymWlPg8Tz_loFGUuLNk4406U5W48ygz4-PWlLX4lvQoJhKbeCVGk-XiSzv-PE4bZekRkvgzDTdoo5KbtXvIO-TtnBM4JY895W0Rlzj1CDpl9FeUePiO8Q",
        "formattedAddress": "Thành phố Tuyên Quang, Tuyên Quang",
        "name": "Thành phố Tuyên Quang",
        "coordinate": {
            "latitude": 21.819516734000047,
            "longitude": 105.21814756300006
        },
        "compound": {
            "district": "Tuyên Quang",
            "commune": "Tân Quang",
            "province": "Tuyên Quang"
        }
    },
    {
        "placeId": "3emIU54AUkTxwK-Gny19Sd7F2MaeLVMg65qt4vYxV0PthdmDmx9feOb5vYaHMWV97eqG5qotLHrc6qzdkgskWPHmvtmFMSBG6ejZ2qo9U17d6qzhnz1HXOrFh_KGE0Gdi7MWv3YU1U1rp-If2nz1PW-vE2eCpPVdf6sVDxoaGR1ve65HZqRNDZOmcgOaeMSVk6vGt7Z49T0L4xYfUqylDZ9zmv-aaNXlF8p-9_pwpT1Xp6tjgnjJXWOXrvc0",
        "formattedAddress": "Tuyên Quang, Việt Nam",
        "name": "Tỉnh Tuyên Quang",
        "coordinate": {
            "latitude": 21.822100637000062,
            "longitude": 105.21726116700006
        },
        "compound": {
            "district": "Tuyên Quang",
            "commune": "Minh Xuân",
            "province": "Tuyên Quang"
        }
    },
    {
        "placeId": "4pWOl08pUmzs8gqKj7p4SdPyJOuPj7Rr1cwZj5dO0lTk4FaJo5hebfvvLP6jj29i5_BeiKOMk3LSyx7tdNKbadXgJ8uWulkq4OE406PQWk3U4zTolqVOVePMNPuPjk5r5cwa1IymWlPP78Tz_lo5GUuDNNOmg0E5K48w0z4-PVlrX4lvQoJhKbeCVGu-XiSxt-PE45JdeRkvgzKTdojRKbtXvIO_jtnBM4JM894G0RlzU4yCW6dFeUeziO8Q",
        "formattedAddress": "Tp. Tuyên Quang, Tuyên Quang",
        "name": "Tp. Tuyên Quang",
        "coordinate": {
            "latitude": 21.7767246,
            "longitude": 105.2280196
        },
        "compound": {
            "district": "Tuyên Quang",
            "commune": "Lưỡng Vượng",
            "province": "Tuyên Quang"
        }
    },
    {
        "placeId": "1fH_6IDohMCSWRLzi5AvyOPdKDcGcnH9Z__EZ_oulTX3y40jhs8JjUevyGp6HpFk68dkF15zBRTun8C_2sMBNP8LaN1y3pln88_IrXrDDSV7H8Cf7hbZdRvDfJ-icnV149t8Jx5-1SUDw8y_shZ1VQeLeJ_qzw11F8N8n3JycSUHE8UjDs4tZfvOGCfyEmj9-6-Ir94S3VVjz3yfOsZ1Zfcb8M_yApWNf84Uv5IanVU9N8Mf6hMJNQjPxKNc",
        "formattedAddress": "Huyện Tuyên Hóa, Quảng Bình",
        "name": "Huyện Tuyên Hóa",
        "coordinate": {
            "latitude": 17.883761436000043,
            "longitude": 106.02977166100004
        },
        "compound": {
            "district": "Tuyên Hóa",
            "commune": "Đồng Lê",
            "province": "Quảng Bình"
        }
    },
    {
        "placeId": "hk3XTTN_6NX_yw30pJ-zLeLMM-iiVolp_PcR_ojXSSj_-CvJlLIqdkjLI_Cnn1HV_JMjUKOPWWiP-C_SlLAiXuX3GdWRo2tx5-Y_1KTXXUrT5DPvkaJJUuTLM_yIiUls4ssd04uhXVTn9pT4O4lBVeXKke6n10lR5MszWYUiI5FXQXchcp5_laueSHeiQjitq__Y_45CjQUznyzPapYlNadLoJ-iUsXdL55E78JKzQVvT5CfukNZZVuvlPMM",
        "formattedAddress": "Tuyến 2, Chư Ty, Đức Cơ, Gia Lai",
        "name": "Tuyến 2",
        "coordinate": {
            "latitude": 13.801084704289527,
            "longitude": 107.689246884884
        },
        "compound": {
            "district": "Đức Cơ",
            "commune": "Chư Ty",
            "province": "Gia Lai"
        }
    },
    {
        "placeId": "s59NZ45ZUOXr-DzMnNcwadUNIItOQ10rL0iwKw6eLd1DS9Tv0lZ9NfNL1GfaTsX9W5MwF9ZCUf0zj9SPIi5FdhujODkSJoVKJ5-Y_1KTXXUrT5DPvkaJJUuTLM_yIiUls4ssd04uhXVTn9jv4kYlBVeXKM-6n10lR5MszyIjkXVXQiFzXp-VNaueSHeiQjitq__Y_45CjQUznyzPapYlNadLoJ-iUsXdL55E78JKz_FtB5CfukNZZVuvl08M",
        "formattedAddress": "Quảng Nam, Việt Nam",
        "name": "Tỉnh Quảng Nam",
        "coordinate": {
            "latitude": 15.57277128800007,
            "longitude": 108.47082030600006
        },
        "compound": {
            "district": "Tam Kỳ",
            "commune": "Tân Thạnh",
            "province": "Quảng Nam"
        }
    },
    {
        "placeId": "SvvigUKlWh7gygr-laRVKdXhHuWPpWxS-8w8yKSqWWDi_x7XoNN_K-XJL42UtWRK581P0KWYSpPv8mPzKLR0k9SVW46UtlUo4OE406PQWk3U4zTjlqVOVePoNMyPjk5r5cwaP1IymWlNe8eD_lo5GUjzNNOmg0EpW48w0z4-P-1JO4lvQoJjXbeCVGu-XiSxt-PE45JekRkvgzDTdoo5KbtXvIO-TtnBM4JY895W0RlzU4yDpl9FeUeziO8Q",
        "formattedAddress": "Quảng Ninh, Việt Nam",
        "name": "Tỉnh Quảng Ninh",
        "coordinate": {
            "latitude": 20.941619375000073,
            "longitude": 107.12364003300007
        },
        "compound": {
            "district": "Hạ Long",
            "commune": "Hồng Hà",
            "province": "Quảng Ninh"
        }
    },
    {
        "placeId": "XXQr11nR-Dtd8VTXlqXWQNbgII-Vtk1a-Mk78aC2KirQ4CvnkdBdUoLjGtaNtiZgxuMnzpeN4F3hRUiMprfPAufyHdGQj1lc4-I70KDTWU7X4DfrlaZNVuDPN_iMjZBo5s8Z102lj1Dj8j_8lY1FUeHON-qj001V4M83zIyMWVHU4VjTo5tJbuOWTOyUii8Z-_Ju55SnRUjjzzfeoY1JbdbsI-yQtXNP45U_9Ja3SV_X4CPqlQNJFUu_hOMc",
        "formattedAddress": "Quảng Bình, Việt Nam",
        "name": "Tỉnh Quảng Bình",
        "coordinate": {
            "latitude": 17.467330702000027,
            "longitude": 106.62320869600006
        },
        "compound": {
            "district": "Đồng Hới",
            "commune": "Đồng Hải",
            "province": "Quảng Bình"
        }
    },
    {
        "placeId": "XM_4K03n5YnSyz_Ti7JjSubLhg2RoGtx_8qP5JKOY0zTTSPKibCUK_xrUOqNsYlT4PQn0peOSUX_WZKIpNd0KdI7MIulrXdO5-Y_1KTXXUrT5DPvkaJJUuTLM_yIiUls4ssd04uhXVTn9jv4kYlBVeXKM-6n10lR5Mv8yIiIXVUz5dDXp59NaueSHeiQjitqs_Y_45BIQf-jyzPapUxNadLoJ-iUsXdL55E78JUKzQVvT5CfukNZZVuvlPMM",
        "formattedAddress": "Thị xã Quảng Trị, Quảng Trị",
        "name": "Thị xã Quảng Trị",
        "coordinate": {
            "latitude": 16.754077297000038,
            "longitude": 107.18755658900005
        },
        "compound": {
            "district": "Quảng Trị",
            "commune": "Phường 2",
            "province": "Quảng Trị"
        }
    },
    {
        "placeId": "USK85Ntgz2bcwVDgr69dSOfqJIaErG9l55w31pmEUUGKnz_whb5zX_T6J4GZ2UJm7PszQZOFxOjzaBV0rlV8wt7H2MGHmCYk6-oz2AGoUUbf6D_jna5Fv-jHP_CEXvCFRccR34et7ljr-jf0nYVNWenGP-Kr20Vd6Mc_xISEUUTIc6VDbq5NBWeueEeScgidm8_oz75yvTUDrxz_WqYVBZd7kK-SYvXtH6503_J6_TVff6CvinNpVWufpMM8",
        "formattedAddress": "Quảng Ngãi, Việt Nam",
        "name": "Tỉnh Quảng Ngãi",
        "coordinate": {
            "latitude": 15.122513297000069,
            "longitude": 108.80031079200006
        },
        "compound": {
            "district": "Quảng Ngãi",
            "commune": "Trần Hưng Đạo",
            "province": "Quảng Ngãi"
        }
    },
    {
        "placeId": "e_ZlSPL9icbpWD3X4biHRsdqGN9EwYZOweAM5ki3gOl9_TbCRMBM6_HznOMmpoQ5xoU22ly0h1_A2xvxSLWBR8acDPNIuLFhXfMqwUjChPJf8Sb6XLedR_HeJulcnJ55994Ixki0hEHy4y7tVJyyQPDfJvtcwpNE8d4mnd2dskDF8EnCWIqFf_KHCP0-m4V_6uMq9lS2sFnypibPWN6BfMecMv1ipIde8oBQu5VSmhU7G8TL7TMOBQ_7wKdY",
        "formattedAddress": "Thành phố Vinh, Nghệ An",
        "name": "Thành phố Vinh",
        "coordinate": {
            "latitude": 18.67052758400007,
            "longitude": 105.68424234700007
        },
        "compound": {
            "district": "Vinh",
            "commune": "Lê Mao",
            "province": "Nghệ An"
        }
    },
    {
        "placeId": "J9nCt9xBAmpLG8Difhlmcf8bwP52FWTZe8N4SnrbCSVD840zqs8E2YejzTOSHpkU_wOA01be0Pkvq8CfagMN3T-uGL-yBnGtR8_IrwLDDSV7H8Cf7hbZdRvDfJ-icnV149t8Jx5-1SUDz4ujshZ1VQS_e8YD6w12n8N8ns5xFSZzE8UjDs4tZfvOGCfyEXD9-6-IrmoT3VVjz3yfOsZ1Zfcb8M_yApWNf84Uv5IZNVU_H8Kf6hDNNQv_xKNc",
        "formattedAddress": "Thành phố Trà Vinh, Trà Vinh",
        "name": "Thành phố Trà Vinh",
        "coordinate": {
            "latitude": 9.937185139000064,
            "longitude": 106.34032822300009
        },
        "compound": {
            "district": "Trà Vinh",
            "commune": "Phường 1",
            "province": "Trà Vinh"
        }
    },
    {
        "placeId": "hydgRO5Gh_Ct6CDenoRBv97GJ4WdZy6C6MEKhq7aUUjk-1Tyq9ku6N55Hdmfvl3r2Pgsza-sJlPy6D_CmNtvV_OeN_SZhHNJ6-oz2KjbUUbf6D_jna5FVZjHXvBBiug_hMcRhUXfUVjr-jf0nYVNWenGP-Kr20Vd6Mc_xISEUVnc6VDbq5NBZuueEeScgidm8_oz75yvTUDrxz_WqYVBZd7kK-SYvXtH6503_J6_TVff6CviInNpVWufpMM8",
        "formattedAddress": "Vĩnh Long, Việt Nam",
        "name": "Tỉnh Vĩnh Long",
        "coordinate": {
            "latitude": 10.254148550000025,
            "longitude": 105.97204881100004
        },
        "compound": {
            "district": "Vĩnh Long",
            "commune": "Phường 1",
            "province": "Vĩnh Long"
        }
    },
    {
        "placeId": "FFW47p1QQ6zbj9_9rQNDbfXKWeuYunYh6cQq2p67cSbbwgT5gLRQWvXvCOWu3kAm7JoI_6yqWCfi_zr8nbknYfWYEMGdq31E7u823a3eIFTa7TrmmKtAW-3COvWBgEBl68IU2oKoVF3u_zLxmIBIXOzDOueu3kBY7cLtwYGBVFzNZOvXerpZEY-yb7uGZhyJj9v826kGqSJnuwjrTRYBEYNvhLuGduH5C7pgy-Zu6SFLa7S7nmbpQX-LsNco",
        "formattedAddress": "Thành phố Vĩnh Long, Vĩnh Long",
        "name": "Thành phố Vĩnh Long",
        "coordinate": {
            "latitude": 10.251461949000031,
            "longitude": 105.97673716800006
        },
        "compound": {
            "district": "Vĩnh Long",
            "commune": "Phường 1",
            "province": "Vĩnh Long"
        }
    },
    {
        "placeId": "p0gqTeq48jLz8knPgqZcTevxkz6xpEc6wIdM_YXpXDrC38LAnPdYUPDjEOWAwD9F9dsQ6ISofmDqhhTWh5pDcPHyNvmBivF-8kQqwbBHC81_G8Sb6hLdcR_HeJumdnFx5994Ixp60SEHy4y7thJxUQPDfJvuywlxE8d4m3Z2dSEBY8EnCsorFf4GHCP1Ymz5_heMq9oW2VFny3l3PsJxYJsf9fP2BpGJe8oQu5YemVE7G8TL7hcNMQ_7wKdY",
        "formattedAddress": "Thành phố Quảng Ngãi, Quảng Ngãi",
        "name": "Thành phố Quảng Ngãi",
        "coordinate": {
            "latitude": 15.121901364000053,
            "longitude": 108.79487855200006
        },
        "compound": {
            "district": "Quảng Ngãi",
            "commune": "Trần Phú",
            "province": "Quảng Ngãi"
        }
    },
    {
        "placeId": "V9TFvsyuQ7rP1A7nupdgR-DUMPy8mTQ2zNIzvYzeQXXL6SzW46xWNID6Q-bgrmhS-fsdlbu_MVHLRvnPvZRGa8oGJOqXylJ6i_kgy_jIQlW7-yzwjr1WTfvULOOXllZz_dQCzJS-Qkv46STnjpZeSvrVLPG4yFZO-9RS15eXLErP-kLIuIBSdfiNAvePkTR14Okg_I1-8XlP41CzFupZSds33OPeLrmhU-I4k742sXkTM-zjxj8lGSfT6I9w",
        "formattedAddress": "Tp. Quảng Ngãi, Quảng Ngãi",
        "name": "Tp. Quảng Ngãi",
        "coordinate": {
            "latitude": 15.1213873,
            "longitude": 108.8044145
        },
        "compound": {
            "district": "Quảng Ngãi",
            "commune": "Nguyễn Nghiêm",
            "province": "Quảng Ngãi"
        }
    },
    {
        "placeId": "Nlyq15xAxybdwFHhrq5cSebrJYeFrW6-5p0215hkUIXxnj71VL91IOrHhOUA2ENn7foyxZKEdWnywxTOr9l9I9_GAMCGvScl6usy2ZnaUEfe6T7iqa9EX-nGPvGFhERh78bx3oasUFkQQOr1nIT76ehYPuOq2kRM6cY-JxYWFUFjd6FHaqpJFQOqfEOWdg2dn8vsyi52uTEHqxj7uqIRAZN_lKuWZvHpG6pw2_Z--TFbe6SrjndtUW-boMc4",
        "formattedAddress": "Cảng hàng không Quảng Ngãi, Hoàng Hoa Thám, Quảng Phú, Quảng Ngãi, Quảng Ngãi",
        "name": "Cảng hàng không Quảng Ngãi",
        "coordinate": {
            "latitude": 15.115573630000029,
            "longitude": 108.77104498500006
        },
        "compound": {
            "district": "Quảng Ngãi",
            "commune": "Quảng Phú",
            "province": "Quảng Ngãi"
        }
    },
    {
        "placeId": "g_lZx-2FgZeZ9T2aF8NcesPbopiAOjNb9dyfm7PHTFX55knvtsQzZO31PtuCo0A6xeUx0LKxO07v9SLfhcZySu6DKumEmW5U9vcuxbXGTFvC9SL-gLNYQ_XaIu2ZmFh989oMwpqwTEX25yrpgJFhQRPTbIv-2xlhA9doi2ZmZTETB9E31XI62e_bGDINcnzp77ucu8oGyUF322iLLtJhceMP5NvmFoGZa9oAq4YMtUErC9Taigf9ISPr0R9I",
        "formattedAddress": "Quận Lê Chân, Hải Phòng",
        "name": "Quận Lê Chân",
        "coordinate": {
            "latitude": 20.84864316900007,
            "longitude": 106.68109689500005
        },
        "compound": {
            "district": "Lê Chân",
            "commune": "Dư Hàng",
            "province": "Hải Phòng"
        }
    },
    {
        "placeId": "pcPV6t2F8THM_j7Vh548ReP9CJ-1mUdA4PUb67SZQ3iG8DXhnbtXU_D1JdnypVdbn_YP2vG0NHLh8C6eiZ5uOvLxF-Keu2V-8MUpwrLBS1zy8iWQh7RfRN30Jfmen196W0sLxZ233ULg8y3uh59XQ9yCJfj8ywV9HscYl3p6eS0Pz8UrBsYlbfITpC_6GmD184PEp9Ya1V1rdxF7Ms59bJf7xf_6Cp2Fdh8Ut5oSlV03y_TFPhsBPQPPq-Co",
        "formattedAddress": "Lê Chân, Châu Sơn, Phủ Lý, Hà Nam",
        "name": "Lê Chân",
        "coordinate": {
            "latitude": 20.528856696536195,
            "longitude": 105.9033059031692
        },
        "compound": {
            "district": "Phủ Lý",
            "commune": "Châu Sơn",
            "province": "Hà Nam"
        }
    },
    {
        "placeId": "Ury6iFcGaFZT8zjLi5LIyHDQCuKPqEJFyIsR2bimaE3k8wLS_7hoXuS_JPGdzjQ1-P8k_PmTVTT58iDDwkLpObuX-Q5OQplpc_P0kz7_M51FG_yj0irnISf_QKOeTQlJ3-dCSyJAGRk_87SDjipJaTv7RKPW8zFJK_9Ao05OTRk7L_qjMvEdWcfyJhPOLlTCP5O0k-HG4Wov80CjBvpJWcsnzPPOPqmxQ_Iog64moWkDI_zz1i81CTfD-J9g",
        "formattedAddress": "Lê Chân, Ba Sao, Kim Bảng, Hà Nam",
        "name": "Lê Chân",
        "coordinate": {
            "latitude": 20.558414325100017,
            "longitude": 105.81930103193079
        },
        "compound": {
            "district": "Kim Bảng",
            "commune": "Ba Sao",
            "province": "Hà Nam"
        }
    },
    {
        "placeId": "juKM09fd_ZZf4U-ViVZyruLVPda9dDBL9tMxiuCtR2j4-QeVj79DUuL4G-iLgV9izOkh7oquNHf5jBSYu71PMcr7QpSXvV82-fghyrrJQ1TN-i3xj7x0XTPrVLeKWl1dy_NUDzZW_Q0r56CXmj5dfS_vULfC5yVdP-tUt1paWQ0vOR_vJuYFTdPlCA1OOkPZ04eghNY69X1L51S3Eu5dTd8z2OfaKr_pV-Wkl7oytj0XN-jmtjvBHSPX7Isg",
        "formattedAddress": "Lê Chân, Yên Thế, Pleiku, Gia Lai",
        "name": "Lê Chân",
        "coordinate": {
            "latitude": 14.04081127751044,
            "longitude": 107.98124832714673
        },
        "compound": {
            "district": "Pleiku",
            "commune": "Yên Thế",
            "province": "Gia Lai"
        }
    },
    {
        "placeId": "6s8-vi5VusrJ-RD_lL5qcfn9DP64oGJO0NEt4Y69P0jR5QT-gpJcNfv1MpSIyXZu_vlE9bmVP2nP-SLOgb83S-L1GMqWrTNN-vuJySLKQFfO-bnyjL9UT_nWLuGVlFRx_9YAzpa8QEn66yblUJSMSPjXLvNcylRM-dYurpXVQEjN-EGVuoJQd_qPAPWNmzZ34us3ik43-XFH61i7HuJRQdM_1OvWJrGpW-owm7Y-uXEbO-TrzjctES_b4Id4",
        "formattedAddress": "Lê Chân, Duy Tân, Kon Tum, Kon Tum",
        "name": "Lê Chân",
        "coordinate": {
            "latitude": 14.36319638254542,
            "longitude": 108.00729800769163
        },
        "compound": {
            "district": "Kon Tum",
            "commune": "Duy Tân",
            "province": "Kon Tum"
        }
    },
    {
        "placeId": "9ENGNV-Gxwvs9iHhgJoxde33C_6hgVNXweY92pmzbWTG5i2G3sf2SfVfPbW1jdlCx4ExnbGdS3r66lrAhqIwPffuTMeDsXlj5fUtxrbFT1jB9iH9g7BbQPbZIe6am1tL8Nl-wZmzTw_15Cnqg5tTR_fYIfy1xVtD9tkh2pqaT0fC907FtY1fePWAD_qCnDl47eQt8YKxU1712ZQhCt5tfe8D6yPqGo2VZ9YMp4oChU0nB9jX8gsRLRPn3LtE",
        "formattedAddress": "Huyện Vĩnh Bảo, Hải Phòng",
        "name": "Huyện Vĩnh Bảo",
        "coordinate": {
            "latitude": 20.69070400000004,
            "longitude": 106.48113100000006
        },
        "compound": {
            "district": "Vĩnh Bảo",
            "commune": "Vĩnh Bảo",
            "province": "Hải Phòng"
        }
    },
    {
        "placeId": "gIXww99N-ETqJ_FZhpznc-sN4DeHn1VRxzvg3IC1a2LAK_zYs8FZXPcZh8Gzi6dxwTfsm-hFm3y3O-PG_KQ2SvEN8sGFkn9l8yvwt03ASV7HgCf7sLZdRvAn3-icnV149gnix5-1SUDzL97shZ1VQfEn3_qzw11AF8Cfx3JycSUHESIbDs4tZfvMJ4vyEmj9-6yvf94S3VVjzJ_zOsZ1ZfcYzhfyApWNf8y_w5IanVU_HM_H6hMJNQv8o8Nc",
        "formattedAddress": "Vĩnh Bảo, Vĩnh Hậu, An Phú, An Giang",
        "name": "Vĩnh Bảo",
        "coordinate": {
            "latitude": 10.79742678100007,
            "longitude": 105.12287747500005
        },
        "compound": {
            "district": "An Phú",
            "commune": "Vĩnh Hậu",
            "province": "An Giang"
        }
    },
    {
        "placeId": "mioU51SCxcP2K-38grsQTd1UxcGYucJX4XYQw6q7m2D2JzWD9d7-TJxQJtm66exE3WoDyLqp4XzqUCWCq9_-TOp6Mv2rhu9h7lQ23a3e7UPaQDrmmKvCW-1AOvWBgMJl61QU2oKo_13uQTLxmIBcSOxAOueu3p1Y7YE6wcKB7FzZRFDerpabY-4iVeGZh_9j9kg2N6pmqwkXuRDrTrIDhYNt-LuGduJhC7kgyj5u67VLaUC75md_sX-JENco",
        "formattedAddress": "Vĩnh Bảo, Minh Hòa, Hưng Hà, Thái Bình",
        "name": "Vĩnh Bảo",
        "coordinate": {
            "latitude": 20.546869041000036,
            "longitude": 106.21234401500004
        },
        "compound": {
            "district": "Hưng Hà",
            "commune": "Minh Hòa",
            "province": "Thái Bình"
        }
    },
    {
        "placeId": "mulTgJpXVyXo-BfwkGq9UJ9z7H4eckV9C2ulDg52FIUbdnHHNh75XJvLUJIOp2zFK7MMxwpmGcVvx6L2GqT4gYOrcgIeGvCFpxegx2qrZU0Td6j3hn6xHXOrFPfKGh0di7MUT3YWvU1rp-DX2n4dPW-vEPeCp2Udf6sU9xoaGU1ve61LZqYhDZOmcE5Ge5iVk8fgx7Z6tT0LpxT3U8odDZ6vmKebcv3lF6Z81_py9T1Xd6ingnthXWOXrMs0",
        "formattedAddress": "Vĩnh Bảo, Hòa Thuận, Châu Thành, Trà Vinh",
        "name": "Vĩnh Bảo",
        "coordinate": {
            "latitude": 9.969225169000026,
            "longitude": 106.35381084200009
        },
        "compound": {
            "district": "Châu Thành",
            "commune": "Hòa Thuận",
            "province": "Trà Vinh"
        }
    },
    {
        "placeId": "yanP0f2Sytfm7Bfxi_55QfGqQta__WlFQ__kkZKUSzUQwDlSk6hTyObyHzGPzUdJ-f4l8JG4NDLx7QvPi5VlTI7yA9DOhU9-vvwlzr7NR1DJ_in1qYtTSP6cKdG4k1N2-OYHyZG7R0797CHii5NbT__QKfS9zVNLV9Ep0pKS_4k9H_0bNvYVXcP2IB_KKlDFw5ewl-Yq5W1b90SnAv5NXc8jyPfKOq21R5osh6oipW0H9_j30isxDTPH_Jtk",
        "formattedAddress": "Chợ Vĩnh Bảo, Vĩnh Bảo, Vĩnh Bảo, Hải Phòng",
        "name": "Chợ Vĩnh Bảo",
        "coordinate": {
            "latitude": 20.686986594000075,
            "longitude": 106.48165183700007
        },
        "compound": {
            "district": "Vĩnh Bảo",
            "commune": "Vĩnh Bảo",
            "province": "Hải Phòng"
        }
    },
    {
        "placeId": "Vb7bXe5J6U3Y6CyFkLxvUumeI8abv3gh2Z5dz4ToVmvv2iPCheQmv_PkJMICrcPDZQcdU3oWv2Frf6zf_nIWKXur0Dl2uh4Zl6-oz2KjbUUbf6D_jna5FXpjHP_DohUVghMcR34etUVhB-jf0nVXrWU3GheKrP0Vd6Mc_xISEUVnc6VDbq5NBZuueEeScgidm8_oz75yvTUDrxz_WqYVBZd7kK-SYvUR76503_J6_R1ff6CvinNpVWufpMM8",
        "formattedAddress": "Thành phố Hòa Bình, Hòa Bình",
        "name": "Thành phố Hòa Bình",
        "coordinate": {
            "latitude": 20.817015350000077,
            "longitude": 105.33760110300005
        },
        "compound": {
            "district": "Hòa Bình",
            "commune": "Phương Lâm",
            "province": "Hòa Bình"
        }
    },
    {
        "placeId": "C7_dU659LEvr-zHNhrNDRtvEKe-qvHEn3esIzJGHvSflnwCGm0zYSfHrBIWdvl9y8cDy3ZyaQ1sl5uXk2ZptavHqIeachWVm6egx2qrZU0Td6j3hn6xHXOrFPfKGh4hi7MUTR4Wv3Vrp-DX2n4dPW-vEPeCp2Udf6sU9xoaGU1ve61LZqZFDZOmcE-aegCVk8fgx7Z6tT0LpxT3Uq-pDZ9yHKeaa5GnlFV5_p_py9T1U16ingnthXWOXrMs0",
        "formattedAddress": "Huyện Hòa Bình, Bạc Liêu",
        "name": "Huyện Hòa Bình",
        "coordinate": {
            "latitude": 9.281656202000022,
            "longitude": 105.62875537700006
        },
        "compound": {
            "district": "Hòa Bình",
            "commune": "Hòa Bình",
            "province": "Bạc Liêu"
        }
    },
    {
        "placeId": "nXp53hTCXNnaxTqGmoB67e1_NYKbqyPt6u8Q-ZNa5Km7cwimHlZZTbu3DKoSu3Edj6f42wZaAUG32unHKq8cQJ9vdBMSCuSMh7u823a3eVEPa7TrmmKtAW-3C9fWBgEBlOsLr2oKoVETu_zLxmIBdSOzDOueu3kBYQcI6j4GBVO1c7FXBrpZEY-6bFOGZhyJj9v826pmqSEXuwjrTrIBEYNvhLuGduH5C7pgy-Zu6SFLa7S7nmd9QX-LsNco",
        "formattedAddress": "1 Ngõ Hoà Bình 7, Minh Khai, Hai Bà Trưng, Hà Nội",
        "name": "",
        "coordinate": {
            "latitude": 20.99538196700007,
            "longitude": 105.85564576900003
        },
        "compound": {
            "district": "Hai Bà Trưng",
            "commune": "Minh Khai",
            "province": "Hà Nội"
        }
    },
    {
        "placeId": "yHUJl-FKV-fkljv1kYx3cY_yBdXii1nyp2A_-ZeKay_64z_2m4rPLuaVJ_GUp0l215Yr6KClRU3i4z_wl4pFXvvIP86Rimtx-OAr9pS3TVriyDf3lotFTNSWP_OXikVq-8kr56OkKnX33jvUlNNrSuPPXciMt0lB4-I37pSKRaUkyDvLoXhR1qnwAemU0E1S4Qeo38qClUUzj-S_0mKRKYQ",
        "formattedAddress": "Tp. Hòa Bình, Hòa Bình",
        "name": "Thành phố Hòa Bình",
        "coordinate": {
            "latitude": 20.8275154,
            "longitude": 105.3390793
        },
        "compound": {
            "district": "",
            "commune": "",
            "province": ""
        }
    },
    {
        "placeId": "mV81mUQ8g_fy5x_5tZlPSlqCLdqUoG31eeUxtu6ZQ27z9DKc7cZ5ZO3kIeGBoqE57uU-mI5xolb5-hzTmpllevLYE96HnW1Y9fQtxrbFT1jB9iH9g7BbQPbZIe6am1t-8NkPwfazT0b1mSnq5JtTR_fYIfy1xVtD9tkh2pqaT0fC907FtY1fePWAD_qCnDl47eQt8YKxU1712UvIt5tfe8D6IfqGo2VZ9YMp4CoChU4bB9jX8ScRLgvn3LtE",
        "formattedAddress": "Dịch Vọng, Cầu Giấy, Hà Nội",
        "name": "Dịch Vọng",
        "coordinate": {
            "latitude": 21.03220742625959,
            "longitude": 105.79316246413926
        },
        "compound": {
            "district": "Cầu Giấy",
            "commune": "Dịch Vọng",
            "province": "Hà Nội"
        }
    },
    {
        "placeId": "aN5K-Z6D8PH0hSiZiKVea-jyOJiDpXRT8t0484CZdEH_6Rrd9tJhWXcPhNJ6ww0Zzx9sd1oXBYz7r8RWds5_rOG9fONuzqvLv8Dgow7PASl3E8yT4hoNeRfPcJOu1n0579dxexJy2CkPw4Szvhp5WQvLdJPmwwF5G89wk35-fSkLH8kvAsIhaffCFCv-HmTx96OEo9Ie0Vlvw3CTNpLJaflr_MP-epsVcYIYskYWkVkzE8zDnh8FOQfzyK9Q",
        "formattedAddress": "1 Dịch Vọng, Dịch Vọng, Cầu Giấy, Hà Nội",
        "name": "1 Dịch Vọng",
        "coordinate": {
            "latitude": 21.03083689300007,
            "longitude": 105.79233711100005
        },
        "compound": {
            "district": "Cầu Giấy",
            "commune": "Dịch Vọng",
            "province": "Hà Nội"
        }
    },
    {
        "placeId": "a78d-vgv6fnJ-zDQj6FNTJqPHeC-k11vVOQa3o29Qct3jTSSu5Vjdf_pRdC7yUF041Ew4pSh-Gn5RQXGuL5WMoiOP_T7kmNOjPqvyLgjQVbP-Mvzjb5VTvjXL-CUlVVw_tcBz5e9QUj76ifkjZVdSfn2WL_K7y1VN-Ncv1JSUQUnM-UDLu4NRdvuOAfSMkjd24-oj_4y_XVD71y_GuZXgdVH0O_SIrc5X-40n7I6vXUfP-DvyjMpFSvf5IN8",
        "formattedAddress": "2 Dịch Vọng, Dịch Vọng, Cầu Giấy, Hà Nội",
        "name": "2 Dịch Vọng",
        "coordinate": {
            "latitude": 21.034639028000072,
            "longitude": 105.79438775700004
        },
        "compound": {
            "district": "Cầu Giấy",
            "commune": "Dịch Vọng",
            "province": "Hà Nội"
        }
    },
    {
        "placeId": "8MFCXvBdTWXr3zzgsIsZOfbYJ_y2nWtZ6OMF6pzDfV3Ao7D_dgKY-aPDrN-Szi0VE2Yc3m7ebTXz87DvGgKQ2XPHjDcGFt3-S8_IrSrDDScDH8Cf7hbZdRvDfJ-icnV149t8Jx5-1SUDz4i_shZ2nQYDeJ_rxVcNFs98n3JycSUHE8UjDs4tZfvOGCfyEmj9-6-Ir94S3VVjz3yfOsZ1Zfcb8M_yApWNf84Uv5IanVU_H8DP6hMJNQv_xKNc",
        "formattedAddress": "3 Dịch Vọng, Dịch Vọng, Cầu Giấy, Hà Nội",
        "name": "3 Dịch Vọng",
        "coordinate": {
            "latitude": 21.03385432400286,
            "longitude": 105.7938754039998
        },
        "compound": {
            "district": "Cầu Giấy",
            "commune": "Dịch Vọng",
            "province": "Hà Nội"
        }
    },
    {
        "placeId": "b_f9S1GSVOUq1SqWipBqyv39JZKLuzNq-v8A6YapOn7M0jmXhYZAZebXFNW-zFdz-e4m0YaQYX37m1wDaqrtpN8vSFNTNqTMx_kD_zb3ORJ_KJipTiLtQ9v3SKuWRkFB1-9IEypK4RE3-7yLhiJBYTPzTKve-zlBI_dIq0ZGRREzJ_EXOvoZUc_6LBPGJlzJz5u-N-om6WCb-0lXDvJBUcMvxPvGNqG5S_ogi_YuqWELK6T79ic9AT_L8Jdo",
        "formattedAddress": "4 Dịch Vọng, Dịch Vọng, Cầu Giấy, Hà Nội",
        "name": "4 Dịch Vọng",
        "coordinate": {
            "latitude": 21.034075380000047,
            "longitude": 105.79397758500005
        },
        "compound": {
            "district": "Cầu Giấy",
            "commune": "Dịch Vọng",
            "province": "Hà Nội"
        }
    },
    {
        "placeId": "ZyNJn4Kj_jn23Sv7gJ57QveAGp-bs0p19vcB3pibQWTFgwnlhcVzWML3MNKZllk77IABoJvtXXzw5CvcgaI6ZfuDFZmYxEF19_YvxLTHTVrD9CP_gbJZQvTbI-yYmVl88tsNw5uxTUT35ivogZlRRfXa9P63x1lB9CPb2JiYETUXAhEzH9Y9deve3DfiAnjt67-Yv84CzUVz32yPKtZnseV34N_iEo8Jb94ErXYKh4EvD9DdRgMZJRvv1LNM",
        "formattedAddress": "Đồng Nai, Việt Nam",
        "name": "Tỉnh Đồng Nai",
        "coordinate": {
            "latitude": 10.945694913000068,
            "longitude": 106.81775398800005
        },
        "compound": {
            "district": "Biên Hòa",
            "commune": "Thanh Bình",
            "province": "Đồng Nai"
        }
    },
    {
        "placeId": "5o7uXO1UtuLlTQT7jqVu8eEsXcamtnJz7fPpkQSnVynW4xygkNB6a9fgWfOWt0hW4Msm8-HTWyr5lQPGl45uXu6WD46hi1cr4uM60aHSWE_W4TbqlKdMV-HONvmNRjExp584Y1o6kWFHi8z79lIxEtuDPNuuiUEzS4c42zY2NWFDV4FnSoppIb-KXGPmViy5v7fM6-pWmREnizjbfoIxIbNftIu2RSLRO4pQ-9ZdyRF7W4SLrldNcU-7ggzk",
        "formattedAddress": "Đồng Tháp, Việt Nam",
        "name": "Tỉnh Đồng Tháp",
        "coordinate": {
            "latitude": 10.46098887900007,
            "longitude": 105.63393014300004
        },
        "compound": {
            "district": "Cao Lãnh",
            "commune": "Phường 1",
            "province": "Đồng Tháp"
        }
    },
    {
        "placeId": "SI_ilE3tlfpDjSKuUJOK9UTqU675km4Md0RN0o-TVIm66kGS9oJAzzLpId6Urmr4No34y_4HJXMhOxzLrjJJM_jDHNs2Wyk_6V_siybnKQM5P-S7yjL9U-XHWLuGVlFT_SdYAzpabQPpI6ya8jOVc-EzXLvO6ylTh-dYu1ZWVQM13-EHKuoJQ-nePAPWNkzbiUesi_o2-XPp01i7HuJRQz1b1OvWJrGr6Rowm7Y-uXM5L-TrzjctE9lX4Id4",
        "formattedAddress": "Lâm Đồng, Việt Nam",
        "name": "Tỉnh Lâm Đồng",
        "coordinate": {
            "latitude": 11.936441235000075,
            "longitude": 108.44369250300008
        },
        "compound": {
            "district": "Đà Lạt",
            "commune": "Phường 3",
            "province": "Lâm Đồng"
        }
    },
    {
        "placeId": "lNTutcVaOV3TzTnWl4lbKPmWJYn6iUt3pcgD1OKJT0Pl4i3qlObZPd_rxVsqPtn5h5vNW546JdWzV4VbTl6tbc9bIS8SiiCZV4eBt0qLRW0zV4jXpl6RPVOLNNfqOj09q5M0b1Y2nW1Lh8D3-l49HU-PMNeih0U9X4s2Wzo41W1PW445foZlLbOGU0RuWiC1s-fA55ZalR0ri4TXco49Lb83uIe6St3FO4Zc99pS1R03V4iGS6IBfUO3jOtA",
        "formattedAddress": "Quận Đống Đa, Hà Nội",
        "name": "Quận Đống Đa",
        "coordinate": {
            "latitude": 21.019302192000055,
            "longitude": 105.83091482900005
        },
        "compound": {
            "district": "Đống Đa",
            "commune": "Thổ Quan",
            "province": "Hà Nội"
        }
    },
    {
        "placeId": "iKrrb-eTXzDI55xrMk5RNNu_8NJS_zFJL_eMClbz_Vlb4lDjBiMFEWvPjEUK8z0qd-PORbr67Vjjwizjuv7hCUf3_N5O_lTlJ_P0kz7_MRlHI_yiP9LlSSf_QKIqTklJ3-dAGyJC6Rk_87SDjipJaTv7RKPW8qFJK_9Ao05PMRk7L_kfMvIRTVvyJBvOLlXFx5O0k-Iu4Wlf80CjBvpJWcsnzPPOPqmxQ_Iog64moWkDI_zz1i81CTfD-J9g",
        "formattedAddress": "Quận Thanh Xuân, Hà Nội",
        "name": "Quận Thanh Xuân",
        "coordinate": {
            "latitude": 20.99477765200004,
            "longitude": 105.79978623600005
        },
        "compound": {
            "district": "Thanh Xuân",
            "commune": "Thanh Xuân Bắc",
            "province": "Hà Nội"
        }
    },
    {
        "placeId": "vUX2y_B01O7k1Sfru5dVNvzWHVCIl1ngyNY7bpDMZ0r97SPVkar8fOc6SNSLqe1Hy1UZ1ru67Df-RTPNjZB7cvDSM_m9qVFD__4nzLzPRVLL_Cv3ibpRq_zTK56QSlGR-tMF5JO5RUz_7iPgiZFZTf3SK_a_z1FJ_NMr0JCQRU3I_USMz4dVcv-KBb-IljNy5-4n--S7WVSI0yvC_5FVccrwP_CMq6W9T_4kjQYqrWUPL_Og_iM5BTvP9JNs",
        "formattedAddress": "Thạnh Xuân, Thạnh Phú, Cờ Đỏ, Cần Thơ",
        "name": "Thạnh Xuân",
        "coordinate": {
            "latitude": 10.15295677100005,
            "longitude": 105.44134010000005
        },
        "compound": {
            "district": "Cờ Đỏ",
            "commune": "Thạnh Phú",
            "province": "Cần Thơ"
        }
    },
    {
        "placeId": "k4swzpL1kIT91iDwi5VwSfyLEZSQVrh-nfwK_ZNBSm_ViALujs54MPPvOOKSq1Iy54sK5pCUVnf775yDXiqkxbvCIHpKTz0p-_P0kz7_MRlHI_yj0io9SSf_QKOe5k1J3-dAGyJC6Rk_87SCoiuNaTv7RKJK851JKzNAo05NTRv_L_kfMvE5CcfyJVvOLlQZx5O0k-Iu4Wlf80CjBvpJWcsnzPPOPqmxQ_Iog6_-oWkDIiTz1_81CTfD-J9g",
        "formattedAddress": "Thanh Xuân, Xuân Lộc, Can Lộc, Hà Tĩnh",
        "name": "Thanh Xuân",
        "coordinate": {
            "latitude": 18.420385816000078,
            "longitude": 105.75274276000005
        },
        "compound": {
            "district": "Can Lộc",
            "commune": "Xuân Lộc",
            "province": "Hà Tĩnh"
        }
    },
    {
        "placeId": "O11nm6ZabVjjyQn9lqdWKtbiHeaMprdR-M8_y6dvqWPh_B3Uo9DgQdfse_GjggFJ5M4r06bTSWDs8R3wkJB3QdeW-I21l1YrWOLj0KDTWU7X4DfrlaZNVuDPN_iMjU1o5s8Z14-lWVDj8j_8lY1FUeHQON-qj001V4M9MzIyMWTfU4VHTo5tJbuOWGeyUii9u-_I755SnRUnjzzfeoY1ISdbsI-yQtXNP45U_9Ja3RV_X4CPqlNJdUu_hOMc",
        "formattedAddress": "Thạnh Xuân, Trung Hưng, Cờ Đỏ, Cần Thơ",
        "name": "Thạnh Xuân",
        "coordinate": {
            "latitude": 10.138030247000074,
            "longitude": 105.47376079600008
        },
        "compound": {
            "district": "Cờ Đỏ",
            "commune": "Trung Hưng",
            "province": "Cần Thơ"
        }
    },
    {
        "placeId": "0tRX1KQyz0zq9AyMibx-T9X0Iu2Jh0ht08ofiZGJL1Li5lCPpdZIbf3NC1imnlxe5PWO5aKjXC7nACrNlYlia-nLKuCUsEha5uc-1aXWXEvS5TLukKNIVU-XKMv2JiEht48oc0oqgXFXm9zr5kIhAVOTLsu-mMkhQ5crWyYmJXFTR5F3Wpp5Ma-aTHOmRjypr_vc-4pGiQE3myjLbpIhMaNPpJumVsHZK5pA68ZOyQFrS5SbvkddJWOrkPcI",
        "formattedAddress": "Thanh Xuân, Thọ An, Đan Phượng, Hà Nội",
        "name": "Thanh Xuân",
        "coordinate": {
            "latitude": 21.122522433381455,
            "longitude": 105.6350951275093
        },
        "compound": {
            "district": "Đan Phượng",
            "commune": "Thọ An",
            "province": "Hà Nội"
        }
    },
    {
        "placeId": "V4qJ9r_5-Pr05jk7_jL5TaM3mNd1HvkA3_cSPlyaVXzDi0z6Qgr9tMPXmG9OXrENN_foh9JW8MDb16Q_Lj5FhSMpTB9S6gfZ6-UshyrrJQ1TN-i3xj7ziTFfVLeKWivpy_NUDzZeVQ0r56CXmj5dfS1bULfC5yVf7T9Ut1paWQ0vO-0LJuYFTdPmMA_aOkDV04egh_Y69X1L5mC3V-pdTd627OfbEzGlVr48l7oytX0XN-jnwjshHSPX7It0",
        "formattedAddress": "Cổ Nhuế, , Bắc Từ Liêm, Hà Nội",
        "name": "Cổ Nhuế",
        "coordinate": {
            "latitude": 21.06514591244348,
            "longitude": 105.77944511523395
        },
        "compound": {
            "district": "Bắc Từ Liêm",
            "commune": "Cổ Nhuế 2",
            "province": "Hà Nội"
        }
    },
    {
        "placeId": "-JFrPH8_9Ivj9zvaLr14iODOAU1OskiN1PcjTVijiJT8_DPpdK1Rp-brCsJn1XiI4PVQ4WqPc5HT51DVda1ZpNDOXcJTjiCk5U-Y_1OTXXeTTSjPvUqJJiOTLM_xsiUmL4ssd01ShXZHn9jv4VYlBp-XKM-5R10mI5MszyFWIXafQ5VzXap9NkOeSs-hqHSuQ__aO40yjQaXnyzPaaYlNlNLoJ-hLsXeS55E78FuzQZDT5IYnVtZZlOvl7sM",
        "formattedAddress": "Cổ Nhuế, Kim Chung, Đông Anh, Hà Nội",
        "name": "Cổ Nhuế",
        "coordinate": {
            "latitude": 21.14131489699102,
            "longitude": 105.78231829379006
        },
        "compound": {
            "district": "Đông Anh",
            "commune": "Kim Chung",
            "province": "Hà Nội"
        }
    },
    {
        "placeId": "01Zb7LJFn1M30jzDpjJBgdfnTEZS4kWd7_PhHkLquSkzL0iTWj8lCds3oR-yXlqxx-o8_3IOLojPN0jDjQvtRNu-NT_i9jUZr-PmZILvIQlXM-8vwjr1WTftSLOOXltRz_VYCzJS-Qkv46STnjpZeSkbV-vG4yFZOLNQs15eXQkrP-kPIuIBSdfiNAvePkTR14Okg_I-8XlNX1CzFupZS-Hb3OPeLrmhU-I4k742sXkTM-zjxj8lGSfT6I9w",
        "formattedAddress": "Cổ Nhuế 1, Bắc Từ Liêm, Hà Nội",
        "name": "Cổ Nhuế 1",
        "coordinate": {
            "latitude": 21.0506076,
            "longitude": 105.7909724
        },
        "compound": {
            "district": "Bắc Từ Liêm",
            "commune": "Cổ Nhuế 1",
            "province": "Hà Nội"
        }
    },
    {
        "placeId": "ry1XWsrjQ731-07yi5BTmP3EEFuNvzDSzflDl70uWTzDK1UbpjLwwNeLrT62X3Fc34o4PrpWRU3L-6iXSj4o0a_WNG5eslk97-fghyrrJR1TN-kPxj7wtTPrVLeKWl1dy_NUDzZW_Q0r56CXmj5dfS_vU-vC5yVdP-i3V1paWQ0vO-0LJuYFTdPmMA_aOVjWQ4egh_Y50X1L51S3Eu-JTd5f2OfaKzGlV-Y8l7oytX0XN-jnwjshHSPX7It0",
        "formattedAddress": "2 Cổ Nhuế, Kim Chung, Đông Anh, Hà Nội",
        "name": "2 Cổ Nhuế",
        "coordinate": {
            "latitude": 21.139056943002895,
            "longitude": 105.7794089779998
        },
        "compound": {
            "district": "Đông Anh",
            "commune": "Kim Chung",
            "province": "Hà Nội"
        }
    },
    {
        "placeId": "1Tf581HW-cpQ0S6SjpTOa275IZaPvzdu_vsE7YKtPnrI1j2TgYJEWeKNPuG6yFN34Ooi_YKUZXnirgTev9MhM89tENCW3rck1-vsiybnKQFfO-S7yjL9UT_nWLuGVlFRx_9YAzpa8QEn66yabjFVclPjXLuW6SFRM-dYu1ZWVQEjN-EHKuoJQd_qPAPWNkzaJ4usi_ne-XI361i7HuJRQdM_1OvWJrGpW-owm7Y-uXEbO-TrzjctES_ZE-N4",
        "formattedAddress": "4 Cổ Nhuế, Cổ Nhuế 2, Bắc Từ Liêm, Hà Nội",
        "name": "4 Cổ Nhuế",
        "coordinate": {
            "latitude": 21.060187343000052,
            "longitude": 105.78221592600005
        },
        "compound": {
            "district": "Bắc Từ Liêm",
            "commune": "Cổ Nhuế 2",
            "province": "Hà Nội"
        }
    },
    {
        "placeId": "wsegtEC2bVzD5gDTjbJBUPqDWeeGoVxN8dxd4pqaZjjz2yqctsZydO3dCJyExD4_8vUu84KFZXz72gjr6mrBEZO_0SZmarFBW7fcuxbXGTFv29SL-gLNYQ_XaIu2ZmFh989oMwpqwTEX25yrpgJhQhfTbIv9Exli29doi2aKZTETB9E3GmY5ce_aDDPmBnzp77ucu8peyUF322iKBy0hceMP5mPmFNmZa9oAq4YP1UErCojb_gfVIR_r0LdI",
        "formattedAddress": "Tây Ninh, Việt Nam",
        "name": "Tỉnh Tây Ninh",
        "coordinate": {
            "latitude": 11.31426097800005,
            "longitude": 106.09342970000006
        },
        "compound": {
            "district": "Tây Ninh",
            "commune": "Phường 2",
            "province": "Tây Ninh"
        }
    },
    {
        "placeId": "S5Vexo5e4uLV4yuTjI9KbNXNLJWWiSVN48oBjaXRWkPv8LT5oNIlcvvgX4GUtVYs0_Mny6SnLVj5P4zTJk9BkXPjjPP-Sj3hC4OE406PQWk3U4zTolqVOVePMNPuPjk5r5cwa1IymWlPg8Tz_lo5GUuLNNOmg0E5W40o0z4-PzFLXWlvQoJhKbeCVGu-XiSz7bfE45JekRvjgzDTdoo5KbtXvIO-TtnBM4JY895W0RlzUTyDpl9Fe4-xRO8Q",
        "formattedAddress": "Thành phố Tây Ninh, Tây Ninh",
        "name": "Thành phố Tây Ninh",
        "coordinate": {
            "latitude": 11.314134915000068,
            "longitude": 106.08907083300005
        },
        "compound": {
            "district": "Tây Ninh",
            "commune": "Phường 2",
            "province": "Tây Ninh"
        }
    },
    {
        "placeId": "4paW_Xf7dNT96hPqiaxPN5iPH-KMvV93y_gbyZWWcjHK1DXuja9Uecz2G_2LgW1T-vY9zbzIX30bi6D3Egrw8dMroE9SWs0NL-fghyrrJQ1TN-i3xj7xXTPrVLeKWl1dy_NUDzZW_Q0r5ViXmj5df6PtLLfBH-ldP-q251i3JQ1PO1ULJuYFLU_mMA_aOkDV04egh_Y69X4r51S3EUpdTu8z2OfaKr2lV-Y8l7oytX0XN-jnwjshHSPX7It0",
        "formattedAddress": "Quận Tây Hồ, Hà Nội",
        "name": "Quận Tây Hồ",
        "coordinate": {
            "latitude": 21.068738319000033,
            "longitude": 105.81121333000004
        },
        "compound": {
            "district": "Tây Hồ",
            "commune": "Xuân La",
            "province": "Hà Nội"
        }
    },
    {
        "placeId": "l6BWmE7kRjjU8wbQj4PiTKuCUKIjj0KNX4VEeif-ISljk3STdlLZeQ7TzSvqg7yxy0-8k96KnSnPslyTyo6ReTeHjK4-jiSVV4OE406PQWk3U4zTolqVOVePMNPuPjk5r5cwa1IymWlPg8Tz_lo5GUuLNNOmg0E5W48w0z4-BWlLX4luPoNBKbeCVT-_7iSwal_Ft5PikRkvgzDTdoo5KbtXvIO-TtnBM4JY895W0RlzU4yDpl9FeUeziO8Q",
        "formattedAddress": "Thị xã Sơn Tây, Hà Nội",
        "name": "Thị xã Sơn Tây",
        "coordinate": {
            "latitude": 21.141570947000048,
            "longitude": 105.50719483600005
        },
        "compound": {
            "district": "Sơn Tây",
            "commune": "Lê Lợi",
            "province": "Hà Nội"
        }
    },
    {
        "placeId": "CW3jy-tEhguLt2R_mto1EP_DeIfqwm2177uUD7JrFWzrt6jnbhqJ5QPDeC8iCx3r293YfhtC_ZvpL38GxjZxfXz3ZStiOxmFu9fQtxrbF7lhP9iH9g7DBQPbZIe6am1t-8NkPwZmzT0b15Cnqg5tTR_fYofy1IVtD9tnF2pqaT0fC907FX421ePWAD_pfnDl47eQt8YKxU1712SGUt5tfe8D6NVqGo2XI9YMpWYChU0nB9jX8gsRLRPn3LtE",
        "formattedAddress": "Tp. Tây Ninh, Tây Ninh",
        "name": "Tp. Tây Ninh",
        "coordinate": {
            "latitude": 11.3351554,
            "longitude": 106.1098854
        },
        "compound": {
            "district": "Tây Ninh",
            "commune": "Ninh Sơn",
            "province": "Tây Ninh"
        }
    },
    {
        "placeId": "Kuyil8XaWcfD5RvStUhbde32oPOAQW458aIywobcaT7Doxz1mKxIQu3hKvW2xlg-9IIQ57SyQD_65yLkhaE_ee2ACIXZs2U49vcuhbXGTFvC9SL-gLNYQ_XaIu2ZmFh989oMwpqwTEX25yrpgJhQRPTbIv-2xlhA9doi2ZFmZTETB9E3Gto5ce_aDDPmBnzp77ucu8oGyUF322iLLtJhceMP57fmFoGZaNoD24YNcokrC9Tb_gVBIR_r0LdI",
        "formattedAddress": "Quận Hai Bà Trưng, Hà Nội",
        "name": "Quận Hai Bà Trưng",
        "coordinate": {
            "latitude": 21.010176768000065,
            "longitude": 105.84972309300008
        },
        "compound": {
            "district": "Hai Bà Trưng",
            "commune": "Lê Đại Hành",
            "province": "Hà Nội"
        }
    },
    {
        "placeId": "pgzm5bGTiuf9IcyKk6NxRdLJW8qS1F8s5_oh7omhW0_hkj2Pl9VTdOH3E9iLT7Fx4eY96qZpIHbQ5iHRnqAoVP3qB9X-sixSieQ91uXVX0jR5jHtk6BLUObJMf6Ki0tu4Mkf0ZajX1bl9Dn6iYtDV-fIMeyl1UtTS5koxyoqKX8nSV17VpZ1PaOWQH-qSjClo_fQ94ZKhQ07lyTHYp4tPa4TqJdCWs3VJ6pM58pCxQ1nR5iXsktRbVOnnPsE",
        "formattedAddress": "Huyện Hà Trung, Thanh Hóa",
        "name": "Huyện Hà Trung",
        "coordinate": {
            "latitude": 20.010427052000068,
            "longitude": 105.85134764600008
        },
        "compound": {
            "district": "Hà Trung",
            "commune": "Hà Trung",
            "province": "Thanh Hóa"
        }
    },
    {
        "placeId": "hJzr2sfrnZzcwgHPh6F7aOlBK4OQsegj50QJgYeFcE7faVzmhb5nRt_BBoXwvFFkhegN8vOxVXnp-RXWqK5GIr-eL-Sc63Neguoz2KjbUUbf6D_jna5FXujHP_CEhUVg7scR34etUVjr-jf0nYVNWenGP-Kr20Vd6Mc_xISEUVlV6dzbq5NBZlCeEeTogidm85gz75yvTUDr-j_WqYVBZd7kK-SYvXItH6503_J6KTVff6Cu_nOJVWufpMM8",
        "formattedAddress": "Huyện Trùng Khánh, Cao Bằng",
        "name": "Huyện Trùng Khánh",
        "coordinate": {
            "latitude": 22.83259376700005,
            "longitude": 106.53048960400008
        },
        "compound": {
            "district": "Trùng Khánh",
            "commune": "Trùng Khánh",
            "province": "Cao Bằng"
        }
    },
    {
        "placeId": "ouCTXsDl5DzokTj-krFSLP-QL4qnjXcv1pAozIiuf2bm-yDwkLBCRufrAoyKsHBG_U5LyZT_5RqIdCjvkeB8T-awUoiQkV5t5I0816fUXknQ5zDskqFKUeTfIMP-LioVv4cgeSoii0Ffk9Tj7kopCVubJMO2k1EpS58gwy4uLXlbT5l_UpJxOaeSRHueTjShp_Os89ZOgQk_kyDDZpopOatHrJOuXsnRI5JI481qwQljQ55GX7dVaVejmPyQ",
        "formattedAddress": "Trung, Đằng Giang, Ngô Quyền, Hải Phòng",
        "name": "Trung",
        "coordinate": {
            "latitude": 20.83850299200003,
            "longitude": 106.70329781000004
        },
        "compound": {
            "district": "Ngô Quyền",
            "commune": "Đằng Giang",
            "province": "Hải Phòng"
        }
    },
    {
        "placeId": "wLBiQV_13fjx8EvNgKZeT-nzPMCz60U4pFpP_4e6hTjCXijCnqVZcMPZDtWCwj1O99lH6oaqfBLohBbUhZhBcvPwNPuDiEZ88PEog8PASl3E8ySzhrVeRf9PcJOufnl579dwKxJy2SkPw4Szv855WQvKGJPndwF5G89wk35-fSkLH8kvAsIhaffCFCv-HmTx96OEo9Ie0Vlvw3CTNsp5afsX_MP-DpmBc8IYs54WkVpHE8zBMh8FO-fzyK9Q",
        "formattedAddress": "Trung 2, An Định, Tuy An, Phú Yên",
        "name": "Trung 2",
        "coordinate": {
            "latitude": 13.311923451000041,
            "longitude": 109.16456403600006
        },
        "compound": {
            "district": "Tuy An",
            "commune": "An Định",
            "province": "Phú Yên"
        }
    },
    {
        "placeId": "wfzOQv8kqcjJ7ktfiVa6kMn_P0WKQlLu59YkNb-pnTXP_zRNjs_42ef_EX-SqTnRyPw4V4iSWpP-0B1CuZBrAo_4NEOPzkbP7f0kUb_MRvTI_yhJirlS5__QKHeTklLI-dAGT5C6RuP87SBOipJa9f7RKEq8zFLT_9AoTpOTRszL_kdxvIRW8_yJqHGLBjD45O2V54u4WvxX0ChyvpJW88nzPFCPqmzr_IogQImoWvXI_zxNi81C2PD-J51M",
        "formattedAddress": "Nghệ An, Việt Nam",
        "name": "Tỉnh Nghệ An",
        "coordinate": {
            "latitude": 18.67305553600005,
            "longitude": 105.69314424200007
        },
        "compound": {
            "district": "Vinh",
            "commune": "Trường Thi",
            "province": "Nghệ An"
        }
    },
    {
        "placeId": "9SjdXsPNhOfE4xbAn5iROvCEOEGzwJhH8e8OpFqZsEj0zTSYWqZWSMXhNOOCw0Zi9P8057K3WmP8hzTis7ROXfHz84OfmTVF8Dvxs7PASl3E8yT4hrVeRevcJOufnl5789wKxJy2SkPwTuHvhp5WQvIsJPmwwF5G89wk35-fSkLH8kvAsIhaffCFC9v-HmTx96OEo9Ie0Vlvw3CTNsp5afsX_MF-DpmD_8IYsXIWkVkzE8zD5h8FOQfzyK9Q",
        "formattedAddress": "Đại học Công nghệ Thành phố Hồ Chí Minh, 475A Điện Biên Phủ, Phường 25, Bình Thạnh, Hồ Chí Minh",
        "name": "Đại học Hutech",
        "coordinate": {
            "latitude": 10.80218132500005,
            "longitude": 106.71457250300006
        },
        "compound": {
            "district": "Bình Thạnh",
            "commune": "Phường 25",
            "province": "Hồ Chí Minh"
        }
    },
    {
        "placeId": "TkKAs17HHu3v517Rj6D3QME7bNlKvvRIW-aB4AqxTsd7-zDEhsZBPsbJMN-aoGM_wIMw3IKVWlnG3R2ygZpOQcD1CvCHvu9nTvUsx7fE9FnA9yD8grFaQffYIO-bmlp_8dgOwJiyTkf05SjrgppSRvbZIP20xFpC99gg25ubDTkbD9k_EtIxeefSBDvuDnTh57OUs8IOwh1_02CDJUpq2esH7NPuHomRY9IIo44GgUkjA9zT9g8VKRfj2L9A",
        "formattedAddress": "Nghé Ọ, 26 Ngõ 38 Xuân La, Xuân La, Tây Hồ, Hà Nội",
        "name": "Nghé Ọ",
        "coordinate": {
            "latitude": 21.068613155000037,
            "longitude": 105.80480483000008
        },
        "compound": {
            "district": "Tây Hồ",
            "commune": "Xuân La",
            "province": "Hà Nội"
        }
    },
    {
        "placeId": "Rp-ouDg4ha7t_wbgg6tWW_fvKPPvpmBj6K8o2JmqVkfg7QrBrN94TtnBBoSCukp32fw0-0O7IZ_smQGBYlJaJN_LuqMaCV0oj7O0036_cVkHY75_kOKlCWe_AmveDgkJn6cAW2ICqVl_s_cjzmjBKXu7BguWs3EJa78A4w4ODVl7b7lfcrEaUYeyZFuObRiBh9P006Juo90dKwDjRroLsYtnjLOOfunxA7Jow-5m4SlDY7yzlm41SXeDuN90",
        "formattedAddress": "Nà Nghè, Hát Lót, Mai Sơn, Sơn La",
        "name": "Nà Nghè",
        "coordinate": {
            "latitude": 21.18669753100005,
            "longitude": 104.04906945000005
        },
        "compound": {
            "district": "Mai Sơn",
            "commune": "Hát Lót",
            "province": "Sơn La"
        }
    },
    {
        "placeId": "trP-9kPBLf7E3SnFnep1XKTdG5mH8H1n6dw9m4SYdVrF3DXZn6Z9PZDzKsSfp1tF1-JbxIGYMVPphF-e8sFiP8Sy8Jp3uu2FY8fApwrLBS1zF8iX5h7RfRPLdJeqen1969N0LxZ23S0Lx4C3uh59XQ_PcJfixwV-C8t0lpUfeS57G80qesYlbfPGEC_6GmD186eAp9Ya1V1rxXiVPs59b3cR_zDGCp2Fd8Yct5oSlV03F8jH4hsBPQP3zKtU",
        "formattedAddress": "Nà Nghè, Vân Tùng, Ngân Sơn, Bắc Kạn",
        "name": "Nà Nghè",
        "coordinate": {
            "latitude": 22.417706965000036,
            "longitude": 106.00711438200005
        },
        "compound": {
            "district": "Ngân Sơn",
            "commune": "Vân Tùng",
            "province": "Bắc Kạn"
        }
    },
    {
        "placeId": "KP2LVjhe1Ijrzh1OS42IluDZJCgssy1o0ckoz5HWXm_l5juJkLBSVdHrBYuQvrBE48kOjJ981HXn5g6NkopSKOXlMIqIiF5r5OU816fUXknQ5zDskqFKUefIMP-Likpv4ciX0B6iXoXk9YhXkopC--bTJMO1a1EpS58ikyzCLXlbT5l_UpJz_aU6RHuuTjeRp_PU84JOgQk_kyDDZpopOatHrJOuXsnRI5JI485GwQljQ5yTtk9VaVejmP8A",
        "formattedAddress": "Lào Cai, Việt Nam",
        "name": "Tỉnh Lào Cai",
        "coordinate": {
            "latitude": 22.442175667000072,
            "longitude": 104.00521230200007
        },
        "compound": {
            "district": "Lào Cai",
            "commune": "Nam Cường",
            "province": "Lào Cai"
        }
    },
    {
        "placeId": "Xff3wlQmwePp4T3XibhqRljyGN-HwcdOROAMk4a3SH3r_TbmgMBHcvPwNvGEpIF-9fxN6Vi2nTrY8SbBgqU7e_PZGOuwp0c78vMqwbHCSF_G8Sb6hLdcR0ze8emdnFx5Jt4Ixp60SEHy4y7thJxUQPDfJvuywlxE8d4m3Z2dSEDF8EnCsopYf_BKHCP2Fmz5_6uOm9oUqVFny3rbPsJxYfMf9Mv2BpGJe8oQu5YemVE7G8TL7hcNMQ_7wKdY",
        "formattedAddress": "Báo Người Lao Động, 16F Phùng Hưng, Hàng Mã, Hoàn Kiếm, Hà Nội",
        "name": "Báo Người Lao Động",
        "coordinate": {
            "latitude": 21.037773877000063,
            "longitude": 105.84614193800007
        },
        "compound": {
            "district": "Hoàn Kiếm",
            "commune": "Hàng Mã",
            "province": "Hà Nội"
        }
    },
    {
        "placeId": "8Pc1oYLiwZn29yHxmsRDOcj6PeuFnHlHwdwX-LGxYWPHgzKdga9AO-33PcG1xmV88edK2JqjWHjB5T3sWo1Ptu7cIcJYxnlA9fQtxrbFT1jB9iH9g7BbQO7ZIV-am-5-9tkPW5mzT0b15Cnqg5tTR_fYIfy1xVtD9tkh2pqaT0fC907Fho1fePWAD_q1nDl47eQt8YKxU1712UvIt5tfe8D6IZSGo2VZ9YMp-oChU0nBC9jX8gsRLRPn3LtE",
        "formattedAddress": "Huyện An Lão, Bình Định",
        "name": "Huyện An Lão",
        "coordinate": {
            "latitude": 14.614067873000067,
            "longitude": 108.89068375800008
        },
        "compound": {
            "district": "An Lão",
            "commune": "An Lão",
            "province": "Bình Định"
        }
    },
    {
        "placeId": "VNpALsOuSGrbwjbagrtqQ-_CBIaYqUFi9p0ihMNOHeEXamyrGgLliIt39jzmAuERa6f2G256HQEz2mzKBrd59INvxOYKspH5H7u823a3eVEPa7TrmmKtAW-3COvWBgPVlQMIU2oKo613u_zLxuphQXOzDSOeA3jpY7cI6wYGBVFzZ7FXerpZEY-6bFOGZhyJj9v826pmqSEXuwjrTrIBEYNvhLuGduERC7e4y-Zu6flKY7S7nmd9QX-LsNco",
        "formattedAddress": "Hoàng Đồng, Minh Sơn, Triệu Sơn, Thanh Hóa",
        "name": "Hoàng Đồng",
        "coordinate": {
            "latitude": 19.822849236000025,
            "longitude": 105.58462360500005
        },
        "compound": {
            "district": "Triệu Sơn",
            "commune": "Minh Sơn",
            "province": "Thanh Hóa"
        }
    },
    {
        "placeId": "5tW00UbMohrSzDjXlohaKfiXJIikiEp248kC1ZWITkLk4yzrlLdOdu_MJPuOt39gz_JX54-IdG3U4FfSlqpactfJJ8WjiWxU4OE406PQWk3U4zTolqVOVeM7T_uPzE405Y5r1Iymk1Pg8Tz_Wo6WUuLNNOmg0E5W48w0z4-PWlLX4lvQoJhKbeCVGu-XiSxt-PE45Eqkl0vj4DTdRo5KbszvIO-TtnBM4JY89P5WBRlzU4yC0l15eUezi6cQ",
        "formattedAddress": "Xã Hoàng Đồng, Lạng Sơn, Lạng Sơn",
        "name": "Xã Hoàng Đồng",
        "coordinate": {
            "latitude": 21.878286349000064,
            "longitude": 106.75282910700008
        },
        "compound": {
            "district": "Lạng Sơn",
            "commune": "Hoàng Đồng",
            "province": "Lạng Sơn"
        }
    },
    {
        "placeId": "q2Ms28Xw3K3s-wL7mL1eJvOeDtqdrE5miekK7ISHYyC8myT_xdhFaL6cVkJHkPqa6-ckfELZTmfz-SzVk60tZdv5AsXzolJah-kwH2-jYUkXc6zzgnq1G6-tdPPOHhkbE7cQS3ISuUlvo-TT3noZOWurFPOGo2EZe68Q8x4eHUlrf6lPYqJBCZeidEuefgSRl8Pkw7J-sTkPoxDzVqoZCZt3nKOebvnhE6J40_528TlTc6yjhn9lWWeTqM8w",
        "formattedAddress": "Xã Hoằng Đông, Hoằng Hóa, Thanh Hóa",
        "name": "Xã Hoằng Đông",
        "coordinate": {
            "latitude": 19.82511800900005,
            "longitude": 105.91047075600005
        },
        "compound": {
            "district": "Hoằng Hóa",
            "commune": "Hoằng Đông",
            "province": "Thanh Hóa"
        }
    },
    {
        "placeId": "y-AsAE2i10jf4DbmjdNULu3WgyqSi25Qy9D876amdlyU0HSKtpZXJZfmHPW40XJr8NZdz420T2_y4Sr7oZpYT_niNtWO0W5X49Y60aHSWE_h4TbqlKdMV87nNvmNjExpzuIY1o6kWFHz4DR79lIxEUM_hNuui0kxUztU2zY2NWFDg4lnSoppIb5f6GO2Viy5v8-I65pWmkURISTbfoIzObO3iIu2RtHJOlNY-9Ze2RF7h7iLrldNcU-D5OcY",
        "formattedAddress": "Xã Hoằng Đồng, Hoằng Hóa, Thanh Hóa",
        "name": "Xã Hoằng Đồng",
        "coordinate": {
            "latitude": 19.839459851000072,
            "longitude": 105.84201506600004
        },
        "compound": {
            "district": "Hoằng Hóa",
            "commune": "Hoằng Đồng",
            "province": "Thanh Hóa"
        }
    },
    {
        "placeId": "x-omi-adPj7lwBOGmIMmIu7XVNqGvSNm38cqwZ_YUGHr6DWHnrJ5cW_HxA4WesHJK6-0AgpHaUHvo6wCDnIRcJunzPoSGhlBl6-tA2anaMkfe6UXinK9EUOnGX_GFhERh78YQ3oasUFnq-zb1nIRMWOjHPuOq2kRc6cY-xYWFUFjd6FHaqpJAZ-qfEOW-nSZn8vsy7oOuTEHqxj7XqIRAZN_lKuWZvHpG6pw2_Z--TFaZ6Srj3ttUW53oMc4",
        "formattedAddress": "Xã Hoàng Động, Thủy Nguyên, Hải Phòng",
        "name": "Xã Hoàng Động",
        "coordinate": {
            "latitude": 20.894908057000066,
            "longitude": 106.63249043300004
        },
        "compound": {
            "district": "Thủy Nguyên",
            "commune": "Hoàng Động",
            "province": "Hải Phòng"
        }
    },
    {
        "placeId": "--i1x_-fRpnA8yvGnE1jUfHewOmIL01hwYQ33relSXHH8URch6Vr_MHOFX-Hpjs78fAr-IGfRTuA80XV8JpdUIWHDduAwT9w8_Ir8bDDSVnA8CfHhbZeXfDfJ-innF149t8Jx521SUDz4i_shZ1VQfHeJ_qzw11F8N8n3JycSUHE8UjDs4tZfvOGCfyEmj9-6-IAr94S3VVjz3yfOsZ1Zfcb8M_yApWNfkoUv84anVU_k8DP6hMJNQvD_KNc",
        "formattedAddress": "Ninh Bình, Việt Nam",
        "name": "Tỉnh Ninh Bình",
        "coordinate": {
            "latitude": 20.258434522000073,
            "longitude": 105.97635009400005
        },
        "compound": {
            "district": "Ninh Bình",
            "commune": "Vân Giang",
            "province": "Ninh Bình"
        }
    },
    {
        "placeId": "8-hwJytV8PLG4UTHhrVNUPDGgJ8wpl1K8NmF4bCmOjrA8Dv3gcBNTejoQvedpqc38Mc33oc2nVjx3xKctp9kO_dcDcGAwUni80wrwLDDSV5Z8JInhbbHRl3f--icnV149t8Jx5-1SUDz4iA_shZ1VQfHeJ_qzw11F8N8n3JycSUHE8UjDs4tZfvOGCfyEmj9-6-Ir94S3VVjz3yfOsZ1Zfcb8M_yApWNf84Uv5IanVU_H8DP6hMJNQv_xKNc",
        "formattedAddress": "Thành phố Ninh Bình, Ninh Bình",
        "name": "Thành phố Ninh Bình",
        "coordinate": {
            "latitude": 20.257343235000064,
            "longitude": 105.98047000800005
        },
        "compound": {
            "district": "Ninh Bình",
            "commune": "Thanh Bình",
            "province": "Ninh Bình"
        }
    },
    {
        "placeId": "MlgWm-Pc3YTE3TCfs7LsRlndCdKzoPc_79w704efWWP0XUjpg63bP_hNSaOZ3l1A9dwvorStSnXFyh3186JNVMP0M4SEs2B39_YvxLTHTVrD9CP_gbJZQvTbI-yWmVl88tsNmMOxTUT35ivogEZlRRfXaI_63x1lB9Nsj2JiYTUXA9UzHt49deveCDfiAnjt67-Yv84CzUVz32yPKtZldecL4N_iEoWdb94Er4IKjUUvD9Df-9MZJRvuALNM",
        "formattedAddress": "Ninh Bình, Mỹ Tài, Phù Mỹ, Bình Định",
        "name": "Ninh Bình",
        "coordinate": {
            "latitude": 14.111222646000044,
            "longitude": 109.07003547700003
        },
        "compound": {
            "district": "Phù Mỹ",
            "commune": "Mỹ Tài",
            "province": "Bình Định"
        }
    },
    {
        "placeId": "2VnHTeJJp1jG4TdEhrVNAUMboMJ-Fpl1K8Ogr4bCmOjrA8Dv3gcBNPMeEkkSHpjZcx_PW3oedVXDxgBKc359kO_e2DcGAwUlM8_IrwLDDSV7H8Cf7hbZdRvDfJ-icnV149t8Jx5-1SUDz4i_shZ1VQfHeJ_qzw_FF8N8n3JxdnEHE8UjDs4tZfvOGCfyEmj9-6-Ir94S3VVjz3yfOsZ1Zfcb8M_yApWNf84Uv5IanVU_H8DP6hPBNQv_CKNc",
        "formattedAddress": "Ninh Bình, Thạnh Phú, Cầu Kè, Trà Vinh",
        "name": "Ninh Bình",
        "coordinate": {
            "latitude": 9.937321089000022,
            "longitude": 106.11319134000007
        },
        "compound": {
            "district": "Cầu Kè",
            "commune": "Thạnh Phú",
            "province": "Trà Vinh"
        }
    },
    {
        "placeId": "m5n5qnhAgrrswliCgKhcRe6bUeWCqERO7PEqh56CVFHa7QTAq4B-Td3tOveAu1h84uEE_4KAYp3axwjEJkFUhuvHBISemnp_7u823a3eukPa7TrmmFSrW-3COvVEgIFl68IU2kCoVF3u_zLxmIBIXOzDONueu3kBY7cI6wYGBVFzZ7FXerpZEY-6bFOGZjyJj9v82h5nqSEXuwjrTrIBEYNvhLlD1uH5CnZjhMu66SFLa7S7nmd9QX-LsNco",
        "formattedAddress": "Ninh Bình, Phường 2, Bạc Liêu, Bạc Liêu",
        "name": "Ninh Bình",
        "coordinate": {
            "latitude": 9.2737361176783,
            "longitude": 105.72579467872143
        },
        "compound": {
            "district": "Bạc Liêu",
            "commune": "Phường 2",
            "province": "Bạc Liêu"
        }
    },
    {
        "placeId": "18n4QIlMJgTJ4VDPlckiWPr4auCBvJto3yI0-RL6s13jO-E31jqxic87RNsqUrzIy-Pmu8YgiTDL5-lXcjJNUlvaOWfmJyDZ5-tIi-7nKQFfO-S7yjL9UT_nWLuGVlFRx_9YAzpa8QEn66ybljJRcSPjXLvO6ylRM-dYu1ZWVQEjN-EHKuoJQd_qPAPWNkzZ34usi_o2-XFH61i7HiZRQdM_1OvW4rGpW-owm7Y-uXEbORPnzjctES_Y6Id4",
        "formattedAddress": "Khu Thủy Nguyên - Khu đô thị Ecopark, Phụng Công, Văn Giang, Hưng Yên",
        "name": "Thủy Nguyên",
        "coordinate": {
            "latitude": 20.94821994800003,
            "longitude": 105.93674002500006
        },
        "compound": {
            "district": "Văn Giang",
            "commune": "Phụng Công",
            "province": "Hưng Yên"
        }
    },
    {
        "placeId": "mpvsgA3wzpvH9hXDnOBCOfNNh-iwXF3DmzsNWbNE8kv3zpI3h6VVPPLyWcGBwEVh9_w3A5LG0WWD_hDfhsLdNXvLwOJywmjZG8_IrwLDDSV7H8Cf7hbZdRqffJ-ic8F14nd8Jx5-1SUDz4i_shZ1VQfHeJ_qzw11F8N8n3JycSUHE8UjDs4tZfvOGCfyEmj9-6-Ir94S3VVjz3yfOsZ1Zfcb8M_yApWNf84Uv5IanVU_H8DP6hMJNQv_xKNc",
        "formattedAddress": "Thủy Nguyễn Spa, 100B Ngọc Hà, Đội Cấn, Ba Đình, Hà Nội",
        "name": "Thủy Nguyễn Spa",
        "coordinate": {
            "latitude": 21.03656797700006,
            "longitude": 105.83107360400004
        },
        "compound": {
            "district": "Ba Đình",
            "commune": "Đội Cấn",
            "province": "Hà Nội"
        }
    },
    {
        "placeId": "0AJWVtcgk__7iRrqjpBvNzvs7dePhCT9MgJr5jCViDPP0BGViatnf5OfQJJOLuFZpyIm69780WlL9_LrviJVaQeTXINGOlXRu5_806YuoUkX91yjoiZRaU8uJIOyIlVp15NY0kOi7NWrL-CS8i8z1VcH8QnSTqNde_P0o8YuVWmfJ1yTUvrZOVfjvHvaLz1JN_u0o5r-6TlP8iDDrh7tVfg",
        "formattedAddress": "Thủy Nguyên, Hải Phòng",
        "name": "Thủy Nguyên",
        "coordinate": {
            "latitude": 20.9451331,
            "longitude": 106.6715543
        },
        "compound": {
            "district": "",
            "commune": "",
            "province": ""
        }
    },
    {
        "placeId": "2FKfgP-N_fX3xhIgnFrdeOjvOPKbeN9i9exX2IBR3G734w5DrFbe5-BS_m-eKYJG7TA0w5lPqVrpxu-Crlq2JfQw7oOfVtx67O00L369WqUHY7zjkmkKCWe_AOPeDQqpn6cAW2IBWgl_s_TDzmkrcXu7BOOWsQoNa78A4w4NWlF7b7lfcrEaFYeyZFuObIKhh9P006JtKgkfswDjRrka6YtnjLOOffLhA95ow-5lK3VDs7yzlm1K4XeDuN8g",
        "formattedAddress": "Bình Phước, Việt Nam",
        "name": "Tỉnh Bình Phước",
        "coordinate": {
            "latitude": 11.534472006000044,
            "longitude": 106.88645069300009
        },
        "compound": {
            "district": "Đồng Xoài",
            "commune": "Tân Phú",
            "province": "Bình Phước"
        }
    },
    {
        "placeId": "lFKs44-ZTfv5iy1T0I5F00viPFZCUvEV6-fgO0ZeUTmvKjAbqisp8MazpNOC4ylY2ko8O4pSQUnP_6yTTjq01avSMGpaXy056-Pkgy7vIQlXM-yzwjr1WTfvULOPjllZzl9QCzP2-Qkv46STnjpZeSvrVLPG4yFZO-9Qs15eXQkrP-kPIuIBSdfiNAvePkTR14Okg_I-8XlP41CzFupZSds33OPeLRmhU-I6u740kXkTM-1fxj8lGOPT6Sdw",
        "formattedAddress": "Bình Phước, Phước Thới, Ô Môn, Cần Thơ",
        "name": "Bình Phước",
        "coordinate": {
            "latitude": 10.089396796000074,
            "longitude": 105.67817811600008
        },
        "compound": {
            "district": "Ô Môn",
            "commune": "Phước Thới",
            "province": "Cần Thơ"
        }
    },
    {
        "placeId": "9JjynYc55bTE4QfUirVXav2ESluBpuBa9ttGW52dYT_03C2bscGlc-rjG-qDdcM4_vIp9ZCeWDnxhT2F_bdDY-jzT8p6dq1dR8fApwrJeS8HF8iX5h1xfRPLdJeqen1969N0LxZ23S0Lx4C3uh59XQ0_c8_ixwV9HJd0l3p6eS0PG80rBsfJbfPGJC_6GhD186eAp9Ya1V1rx3SXMs59bf8SCMf7-p2Fd8YIt5oSlV03F8jH4hsBPQP3zKtU",
        "formattedAddress": "Bình Phước, Tân Bình, Vĩnh Cửu, Đồng Nai",
        "name": "Bình Phước",
        "coordinate": {
            "latitude": 11.003122004000033,
            "longitude": 106.80756630600007
        },
        "compound": {
            "district": "Vĩnh Cửu",
            "commune": "Tân Bình",
            "province": "Đồng Nai"
        }
    },
    {
        "placeId": "HBiM-uPiIjb7-kHHiqxUReP5Nsq5sE8yyI9F9Y3KVDL_1yKJyK9TesnT-ZSIyDdNri7h4Iz9dmjTjqDej5JLePn6UPGJgj52-vtMybnKQFfO-S7yjL9UT_nWLuGVlFRx_9YAzpa8QEn66ybljJRcSPjXLvO6ylRM-dYu1ZWVQEib-EHNuoJVUMqPAPWNk3d34usi_o2-XFH61i7HuJRQdM9E9fWJrGpW-jom7Y-u3XEbO-TrzjctES_b4Id4",
        "formattedAddress": "Bình Phước, Đại Minh, Đại Lộc, Quảng Nam",
        "name": "Bình Phước",
        "coordinate": {
            "latitude": 15.862764795000032,
            "longitude": 108.07572943600007
        },
        "compound": {
            "district": "Đại Lộc",
            "commune": "Đại Minh",
            "province": "Quảng Nam"
        }
    },
    {
        "placeId": "I_PPU1JBy1n7wjuXvagyfOf-HZW9ulFr-OAd1pPPSUZV1DiSv836NjbtSM2NzGt0_Yke1Iy5RTbz7wn0iqtZSueJtdeIMzqM__4nzG3PRbzL_Cv3ibpRSvzTK-SQkVF0-tMFy5O5RUz_7iPgiZFZTf3SK_a_z1FJ_NMr0JCQRU3I_UTPv4dVcv6-KBfCIljNy5-4n-4i7WVT_0yvCvZFVnsrw5HGMqVBvP4n_6Iqr8EP8yz_2iM5BTvz9JNs",
        "formattedAddress": "Bình Phước, Bình Chánh, Châu Phú, An Giang",
        "name": "Bình Phước",
        "coordinate": {
            "latitude": 10.525520121000056,
            "longitude": 105.23921430700005
        },
        "compound": {
            "district": "Châu Phú",
            "commune": "Bình Chánh",
            "province": "An Giang"
        }
    },
    {
        "placeId": "oeJJyqfjoAnn8VjvjKV4Y-DgCcuQi14o4vFcxpS0VWHn4xqMo9JFVPvhJ42XtlVx74IJlI-NbyvX8kzJl4tZBebKdYlJt5Ny4-I70HfTWU7X4DfrlaZNVuDPN_iMjU1ot88Z14_mWVCl8j_8lY1FUeHON-qj001V4M83QzIyMWVHU4VjTo5tJbuOWGeyUii9u-_I75_inXUiUz0Xe4403bdbsI-yQtXNP45U_9Ja3RV_X4CPqlNJdUu_hOMc",
        "formattedAddress": "Quận 4, Hồ Chí Minh",
        "name": "Quận 4",
        "coordinate": {
            "latitude": 10.766483865000055,
            "longitude": 106.70628847900008
        },
        "compound": {
            "district": "Quận 4",
            "commune": "Phường 13",
            "province": "Hồ Chí Minh"
        }
    },
    {
        "placeId": "8OJYhYRAsN_H4BXDnJtCOfOHO5uww11E8uwNmrObWUv3zjfOh6AVVUPD8J-mzwEVh94A35Fm0_GD_6DfhWbdNXrHyOJywmjZG8_IrwLDDSV7H8Cf7hbZdRvDfJ-icnV2n9vAJx5J4SbXz3y-f7J1VQfFcJ_qzw13e8EUn3JycSUHE8UjDs4tZfvOGCfyEmj9N6-J-94S3VSvz3yfOsZ1Zfcb8M_yApWNf84Uv5IanVU_H8DP6hMJNQv_xKNc",
        "formattedAddress": "Quán 47, Phường 1, Bình Thạnh, Hồ Chí Minh",
        "name": "Quán 47",
        "coordinate": {
            "latitude": 10.796696460000021,
            "longitude": 106.69754667000007
        },
        "compound": {
            "district": "Bình Thạnh",
            "commune": "Phường 1",
            "province": "Hồ Chí Minh"
        }
    },
    {
        "placeId": "IcnoPORSodQskObPoKBBZjvm_M-T1FpcKevX0Z-xMHUg9-fzirNeVVPI_9Ck13RYGpL8906isChbk-DBTorXbwKSheSnoSws--XQ16fUXkkw5-fskqFKUTDI4f-LikpvHsjk0IiiXlc45-b7kopCVjD15-2k1EpSMMjTS4uLXstf5uRWpJxOaR6R_OuTjShpPPXk4JOgQk8wyNHZpTopOapfrl-sksnRIOJLQ85GwQlgk5-jtk9VaVT_m_8A",
        "formattedAddress": "Quán 40, 40 Cao Lỗ, Phường 4, Quận 8, Hồ Chí Minh",
        "name": "Quán 40",
        "coordinate": {
            "latitude": 10.743434032000039,
            "longitude": 106.67611006900006
        },
        "compound": {
            "district": "Quận 8",
            "commune": "Phường 4",
            "province": "Hồ Chí Minh"
        }
    },
    {
        "placeId": "50LQ1Nk8jUv_k1MgnLHhL1r143yRvs9rBucCUpyK93_hlzh0ybDnSejCJ5CKsotw185aTZPW9Wf__yBKk4vwb-bXLFKhhYhm5OU8XqfX7EnQ5zBKkqH_UefIMEqLitBv4TcgeXoii-1fk9ThCkortVubJMEqk1MtS58gwXouL1FbT5l9OpJzraeSRsCiTHuBp_PWNQpOg2U_kyDBOporratHrJHSXsvNI5JI4QpGw7VjQ5yRak9XAVejmP04",
        "formattedAddress": "Quán 49, 49 An Điềm, Phường 10, Quận 5, Hồ Chí Minh",
        "name": "Quán 49",
        "coordinate": {
            "latitude": 10.751582026000051,
            "longitude": 106.66575291400005
        },
        "compound": {
            "district": "Quận 5",
            "commune": "Phường 10",
            "province": "Hồ Chí Minh"
        }
    },
    {
        "placeId": "taHT4-jS04768Avtl_plXbbhXsqj7XVZX-P4jY6IVykM3CXUj7RPbfnzJe-Ztixe-fAuyqJLjXfV4QvcjnFtL9LLH7WNy1dM4eA50KLRW0zV4jXpTqRPl-LNNfpUj09q5M0b1Y2nW1Lh8D2S4o9HOU-P-NZfM0U9X4oA1zY6OW1PWzlrRoZlLbOGUG-6WiC1s-fA55ZalR0rhzTXco49Lb9TuIe6St3FN4Zc99pS1R13V4iHoltBfUO3jOsU",
        "formattedAddress": "Quán 48, 48 Mai Anh Tuấn, Ô Chợ Dừa, Đống Đa, Hà Nội",
        "name": "Quán 48",
        "coordinate": {
            "latitude": 21.018854029000067,
            "longitude": 105.82202059300005
        },
        "compound": {
            "district": "Đống Đa",
            "commune": "Ô Chợ Dừa",
            "province": "Hà Nội"
        }
    },
    {
        "placeId": "74Hfm1RQnefs0-o6gfBYIuzhJoee42Jc2scMqqqGenjcmCm0msdbIPbhEN3tw35n6q5RuPz3UGPa_iaWQ9mtQ_X1Ot2C3WJbx-423q3mVEPa7TqrmPVAW-3COoCB2kBl68IUqILxVF3u_zKAmOdIXOzDOt6uwUBY7cI6gYHeVFzZ7FWWruFEY-6bFIeZ6iJj9v82qpnTSEXuwNjqArOFEYNvhLriPnX5C7pgyQflSSLra7S7fRMqZX-LsNbo",
        "formattedAddress": "Quận 7, Hồ Chí Minh",
        "name": "Quận 7",
        "coordinate": {
            "latitude": 10.711520332000077,
            "longitude": 106.73542207700007
        },
        "compound": {
            "district": "Quận 7",
            "commune": "Phú Mỹ",
            "province": "Hồ Chí Minh"
        }
    },
    {
        "placeId": "RHLS4FTVkZnm8QjxWLeSLPmUBNCXpkRs5uMA0o6NaSrRzy71lrRMXdDPPtWWtHZI4e0m1k3TRKf58ybfbacnb9HzCM-NXFhQ4uOo0aE6WE_W4TbqlKdMV-HONvmNjEhp584Y1o6k-VGD8z5MlIziUP3PNuui0kxUts42zY3hWFCN4FnSoppIb-RKXGO2Viy5v-vM65pWmREnizjbfoIzhbNdIIu2RtO1O4pQ-9Ze2RF7W4SLrldNcU-7gOcY",
        "formattedAddress": "Quán 7, Lô 2B - Khu đô thị Trung Yên, 117 Trung Hòa, Yên Hòa, Cầu Giấy, Hà Nội",
        "name": "Quán 7",
        "coordinate": {
            "latitude": 21.01709565400006,
            "longitude": 105.79891310200009
        },
        "compound": {
            "district": "Cầu Giấy",
            "commune": "Yên Hòa",
            "province": "Hà Nội"
        }
    },
    {
        "placeId": "2_2kjc0iPvfN1DnlurtQT5bUAP66qTs25tUy2o6WUGr90kHgiqRET8yKFPGQQFRJ_NWr1b0fQ3zM_RT6n6tEXcrDOo2Numl-_v8m6r3ORFPK_Sr2iLtQS_3SKuWRkFB1-9IEypK4RE3-7yJRiJ7BY4fzTKky-zlBI_dIq0ZGRREzJ_EXOvoZUc_6LBPGJlzJz5u8m-om6WFX-0irDvJBUcMvxqvGNPm5S_ohU6YuqqELK_Vj3ic9AT_L8Jdo",
        "formattedAddress": "Quán 76, Đông Hòa, Dĩ An, Bình Dương",
        "name": "Quán 76",
        "coordinate": {
            "latitude": 10.877542222000045,
            "longitude": 106.80467388900007
        },
        "compound": {
            "district": "Dĩ An",
            "commune": "Đông Hòa",
            "province": "Bình Dương"
        }
    },
    {
        "placeId": "ppvhbpY30GPn8Anwk7ZVLfiVBdGWp0Vt5-IB04-MaEzQzi_0l-BOK-O1N_GRlXdJ4Own16b4RWzS8ifemPgmbtDyCUmMqc5R4-I7WaDTWU7X4DfrlaZNVuDPN_iMjU1o5s8Z14-lWVDj8rf8lT9FUeHOjeqj001V4F3PzIyMQWYLUN1hRo5tJ0-OWGeyUii9u-_I755SnRUjjzzfeoY1JbdbsI-yQtXNP45U_9JC3RV_X4CPqlNJdUu_hOMc",
        "formattedAddress": "Quán 79, Tam Bình, Thủ Đức, Hồ Chí Minh",
        "name": "Quán 79",
        "coordinate": {
            "latitude": 10.869130278000057,
            "longitude": 106.72738384600007
        },
        "compound": {
            "district": "Thủ Đức",
            "commune": "Tam Bình",
            "province": "Hồ Chí Minh"
        }
    },
    {
        "placeId": "5FvYadSLXsjqzxyJl4wphOFKJS2JsizY0NUpzpDXX27k5zqIsZFQZeXPOeqxv31F4v4PjZ7VX3TI5w-Mk4tTKfzkMYuJiV9q5eQ91qbVX0jR5jHtk6BLUObJMf6Ki0tu4Mkf0YmjX1bl9Dn6k4tDV-fIMeyl1UtST5slPyoqKMVfS51_VpZ1PaOWQH-qSjClo_fQ9W5KhQ07lyeExp4tPa9DqJeqWs3VJ5ZM58pCW5lnRQyXssZLmVOnnPsE",
        "formattedAddress": "Quán 79, Uyên Hưng, Tân Uyên, Bình Dương",
        "name": "Quán 79",
        "coordinate": {
            "latitude": 11.052146667000045,
            "longitude": 106.78344277800005
        },
        "compound": {
            "district": "Tân Uyên",
            "commune": "Uyên Hưng",
            "province": "Bình Dương"
        }
    },
    {
        "placeId": "4d5Ax-oi9Wbr6lHXmrxEvvPpJtqpVV-g2ItVn53aRCLv5TLYhL9ASOj6Vc-YJ2EUn7cMI8JywXXjyngzxn4JbaM7qLumZklxm6usy2anaUEfe6T7inK9EX-nGPumFhERh7_EQQIasxlnq-zZQnIRMWOjHPuOq2kRc6cY-xYWFVFjd6FDaqpJRZ-qfEOWdgyZn8vsy7p2uTEHqxj7XqIRAZJnlKuXfvHpGmZw2_Z--TFbe6SrjndtUW-boMc4",
        "formattedAddress": "Hồ Chí Minh, Việt Nam",
        "name": "Thành phố Hồ Chí Minh",
        "coordinate": {
            "latitude": 10.776553100000058,
            "longitude": 106.70105355500004
        },
        "compound": {
            "district": "Quận 1",
            "commune": "Bến Nghé",
            "province": "Hồ Chí Minh"
        }
    },
    {
        "placeId": "-YyxsGJY00DnypDlsqUqLv3LJuUYsnJq5eky4omsWFTTzAz9pp5yUcL0OtWm1pVf6uUA9y-Jil7kylFMnbzpKf31DH6esU8t5uc-1aXWXEvS5TLukKNIU-XKMv2JiEht48oc0oqgSVzm9zr5kIhVVOTLMu-m1khQ5coyyYmJXFTR5F3Wpp5Ma-aTHOmRjypr_vc-4pGiQE3myjLVbpIdMaNPpJoiV6XZK5pA68ZOyQFrS5SbvkddYV-rkPcI",
        "formattedAddress": "Industrial University of Ho Chi Minh City, 12 Nguyễn Văn Bảo, Phường 4, Gò Vấp, Hồ Chí Minh",
        "name": "Industrial University of Ho Chi Minh City",
        "coordinate": {
            "latitude": 10.822215237000023,
            "longitude": 106.68760423000003
        },
        "compound": {
            "district": "Gò Vấp",
            "commune": "Phường 4",
            "province": "Hồ Chí Minh"
        }
    },
    {
        "placeId": "t5FvTMpFWVjk8AX6j_hvLaTjXOin4HNy7PIF7-CmVijXoR3s4tF7L_uQVMjh00lX4aMn8pTSXSv4llrHj48CX--XDo-gilYq4-I70KDTWU7X4DfrlaZNVuDPN_iMQjUlo5s8Z14-lTVDj8j_8lY1FUeHON-qj001V4M_HzIyMWTfU4VHTo5tJbuOWGeyUii9u-_I755SnRUjjzzfeoY1JbdbsI-yQtbdP45U_9JZzt1_X4CPqlNJdgu_hOFI",
        "formattedAddress": "HCMC City Hospital of Dermato Venereology, 2 Nguyễn Thông, Võ Thị Sáu, Quận 3, Hồ Chí Minh",
        "name": "HCMC City Hospital of Dermato Venereology",
        "coordinate": {
            "latitude": 10.776478264000048,
            "longitude": 106.68660457600004
        },
        "compound": {
            "district": "Quận 3",
            "commune": "Võ Thị Sáu",
            "province": "Hồ Chí Minh"
        }
    },
    {
        "placeId": "TktUlVcsu1P56xL0Ur-XT-P7POdCsnSL_I08zHe-Qov0-R7VuMtsceP7Hum4gF5jzeggmYuvNXb4jRXvurxOMMv6Q9KWvF43-Pkgy7vIQlXM-yzwjr1WTfvULOOXllb7_XMCzJS-QtT46STnjpZe40rVLPG4yF1b6-9Qs15eXQkrP-kPIuIBSdfiNAvePkTR14Oms_I8gXlP41LzFupZSRs33dveLrmg4-I4k742sXkTM-zjxj8lGSfT6I9w",
        "formattedAddress": "Quận Gò Vấp, Hồ Chí Minh",
        "name": "Quận Gò Vấp",
        "coordinate": {
            "latitude": 10.831341945000077,
            "longitude": 106.66878929000006
        },
        "compound": {
            "district": "Gò Vấp",
            "commune": "Phường 10",
            "province": "Hồ Chí Minh"
        }
    },
    {
        "placeId": "zim7KZS9uUvx_yX7hZFYfcjuKdRXlY80yP1D1le7R0nI0RfzipFxc87RIdepjkde_cAbwIuTSzLO0SHNipRSdv7_SuaSuTRF1_ycJb7NR1DJ_v31i7hTSP7RKeaSQ1N2-NGTyZEHR0797CHii5NbT__QKfS9zVNL_tEp0pKSR0_K_0b4NvYVXcP2IB_KKlDFw5ez--Yq5W1b9JdHAv5NXc8jyPfKOq21R_Ysh6oipW0HJ_j30isxDTPH_Jtk",
        "formattedAddress": "Gò Vấp, Hồ Chí Minh",
        "name": "Gò Vấp",
        "coordinate": {
            "latitude": 10.8386779,
            "longitude": 106.6652904
        },
        "compound": {
            "district": "Gò Vấp",
            "commune": "Phường 16",
            "province": "Hồ Chí Minh"
        }
    },
    {
        "placeId": "Spqx8cZUht7G4RTCTJpDOPKGnZo61lzpRcIMm1jtsvP2zzbPWKRUWeniOv6ywURg9v025bC1WGH-hTbgsbZMX_PxOZ2xmzdHgfMqwfLCSF-x8Sb6hBLdcR_HeJumdnFx5994Ixp60SEHy4y7thJxUQPDfJvuywlxE8d4m3Z2dSEDF8EnCsopYf_KHCP2Fm6Z_6l0q9oU-tuPyWSbPsJxYfMf9Mv2BpGJe8oQu5YemVE7G8TL7hcNMQ_6TKfA",
        "formattedAddress": "Ga Gò Vấp, 1A Lê Lai, Phường 1, Gò Vấp, Hồ Chí Minh",
        "name": "Ga Gò Vấp",
        "coordinate": {
            "latitude": 10.815856630000042,
            "longitude": 106.68472940000004
        },
        "compound": {
            "district": "Gò Vấp",
            "commune": "Phường 1",
            "province": "Hồ Chí Minh"
        }
    },
    {
        "placeId": "Z1HLiYyob__w1QaTjaszN_vCP8-TljZzytIz1IrNRXT-_SCSi6vkMUrCN9e_zs1f-NIVl57PRW79_hWElpFJM1D-K5GTk0XmcP4nzLzP_FLLRSv3ibr8SvzTK-SQkVF0-tMFy5O5RUz_7iPgiZFZTf3SK_a_z1FJ_NMr0JCQRU3I_UTPv4dVcv-KBfCIljNy5-4n-4i7WVT_0yvCv6ZFVccrwP_CMqVVTQYn_6IqrWUMj_D_2iM5BTvP9JNs",
        "formattedAddress": "SH Gò Vấp, 188 Phạm Ngũ Lão, Phường 7, Gò Vấp, Hồ Chí Minh",
        "name": "SH Gò Vấp",
        "coordinate": {
            "latitude": 10.824482684000031,
            "longitude": 106.68124511500008
        },
        "compound": {
            "district": "Gò Vấp",
            "commune": "Phường 7",
            "province": "Hồ Chí Minh"
        }
    },
    {
        "placeId": "rcO5qpyGqVnb_AnfgIdeJe-bJ7ush0FY7vAR369RRVfr0ofSmytJRPT9VPD03Fl9r-Ar-MOuoRXzjmCv9rKtRQu7sJICshipa7-433KyOVULb7DvfmedBWuzDO_SARYFk6sMV24NBVVzv_jPwmYFJQO3sO-av30Fd7MI7wICAVV3Y7VTfr5dFYu-aFeCYhiNi9_4365irSUTvwzvSnIFFYdrgL-CtuX9D75kz-Jq7SVPb7C_mmN5RXuPtNMs",
        "formattedAddress": "Chợ Gò Vấp, Nguyễn Văn Nghi, Phường 4, Gò Vấp, Hồ Chí Minh",
        "name": "Chợ Gò Vấp",
        "coordinate": {
            "latitude": 10.82387836600003,
            "longitude": 106.68681974800006
        },
        "compound": {
            "district": "Gò Vấp",
            "commune": "Phường 4",
            "province": "Hồ Chí Minh"
        }
    }
]